legal_entity_id,legal_entity_name,legal_entity_edrpou,care_type,property_type,legal_entity_email,legal_entity_phone,legal_entity_owner_name,registration_area,registration_settlement,registration_address,lat,lng
00031367-5ba0-48d5-931b-3c9f23d9951b,"НЕКОМЕРЦІЙНЕ ПІДПРИЄМСТВО ""ЦЕНТР ПЕРВИННОЇ МЕДИКО-САНІТАРНОЇ ДОПОМОГИ ""СОЦІАЛМЕДИКА"" ГРОМАДСЬКОЇ ОРГАНІЗАЦІЇ ""СІЛІЦЕЯ-КЛАСТЕР""",43130119,Первинна,Приватна (без ФОП),socialmedika24@ukr.net,+380960820870,Гайдайчук Олена Анатоліївна,ХМЕЛЬНИЦЬКА,ІЗЯСЛАВ,"Україна, 30300, Хмельницька обл., Ізяславський р-н, місто Ізяслав, ВУЛИЦЯ ШЕВЧЕНКА, будинок 10В",50.1191124,26.8281141
000d2d82-5add-4b07-89d1-db5067d3ccb2,"ТОВАРИСТВО З ОБМЕЖЕНОЮ ВІДПОВІДАЛЬНІСТЮ ""МЕДІКС КОМПАНІЯ УПРАВЛІННЯ""",43642846,Первинна,Приватна (без ФОП),rusin.medics@gmail.com,+380975407887,Русін Олександр Леонідович,ХМЕЛЬНИЦЬКА,ХМЕЛЬНИЦЬКИЙ,"Україна, 29015, Хмельницька обл., місто Хмельницький, ПРОСПЕКТ МИРУ, будинок 92, квартира 138",49.422983,26.987133
00197725-d848-4e26-aa6c-7612fd5169e1,"КОМУНАЛЬНЕ НЕКОМЕРЦІЙНЕ ПІДПРИЄМСТВО КОЛОМИЙСЬКОЇ МІСЬКОЇ РАДИ ""КОЛОМИЙСЬКИЙ МІСЬКИЙ ЦЕНТР ПЕРВИННОЇ МЕДИКО-САНІТАРНОЇ ДОПОМОГИ""",39007143,Первинна,Комунальна,medcentr.kolomyia@gmail.com,+380343346364,Буртик Марія Володимирівна,ІВАНО-ФРАНКІВСЬКА,КОЛОМИЯ,"Україна, 78200, Івано-Франківська обл., місто Коломия, ВУЛИЦЯ В'ЯЧЕСЛАВА ЧОРНОВОЛА, будинок 32",48.5304917,25.0412054
002b4bd5-2d0a-4c48-8d17-7b24f4dc96bd,"КОМУНАЛЬНЕ НЕКОМЕРЦІЙНЕ ПІДПРИЄМСТВО ""НІКОПОЛЬСЬКИЙ РАЙОННИЙ ЦЕНТР ПЕРВИННОЇ МЕДИКО-САНІТАРНОЇ ДОПОМОГИ""",37677525,Первинна,Комунальна,nr_cpmsd@ukr.net,"+380566696059, +380566696059",Келембет Юлія Павлівна,ДНІПРОПЕТРОВСЬКА,ЧЕРВОНОГРИГОРІВКА,"Україна, 53283, Дніпропетровська обл., Нікопольський р-н, селище міського типу Червоногригорівка, вул.Ярмарочна, будинок 31",47.6264367,34.5297956
004403cc-1f4d-43c4-98dd-9fc5cea0d36e,"КОМУНАЛЬНЕ НЕКОМЕРЦІЙНЕ ПІДПРИЄМСТВО ""ЦЕНТР ПЕРВИННОЇ МЕДИКО-САНІТАРНОЇ ДОПОМОГИ"" ДАШІВСЬКОЇ СЕЛИЩНОЇ РАДИ",37423921,Первинна,Комунальна,illincy_kpzpmsd@ukr.net,+380963478354,Коваль Василь Іванович,ВІННИЦЬКА,ДАШІВ,"Україна, 22740, Вінницька обл., Іллінецький р-н, селище міського типу Дашів, вул.Пирогова, будинок 2",48.9957904,29.4397153
0044d0db-6de8-49cf-ab15-113be343a977,"ТОВАРИСТВО З ОБМЕЖЕНОЮ ВІДПОВІДАЛЬНІСТЮ ""ОКСФОРД МЕДІКАЛ-ВІННИЦЯ""",36604084,Первинна,Приватна (без ФОП),oxfordmedvn@gmail.com,"+380682712121, +380432605005",Мельничук Валентина Анатоліївна,ВІННИЦЬКА,ВІННИЦЯ,"Україна, 21018, Вінницька обл., місто Вінниця, ВУЛИЦЯ ПИРОГОВА, будинок 34",49.233083,28.468217
0069e102-1bfb-45dd-b747-0fc3db883c2b,"КОМУНАЛЬНЕ НЕКОМЕРЦІЙНЕ ПІДПРИЄМСТВО ""ДНІПРОВСЬКИЙ ЦЕНТР ПЕРВИННОЇ МЕДИКО-САНІТАРНОЇ ДОПОМОГИ №4"" ДНІПРОВСЬКОЇ МІСЬКОЇ РАДИ",37899673,Первинна,Комунальна,dcpmsd4kashtan@gmail.com,+380682999570,Подольний Андрій Анатолійович,ДНІПРОПЕТРОВСЬКА,ДНІПРО,"Україна, 49030, Дніпропетровська обл., місто Дніпро, ВУЛИЦЯ ЛАМАНА, будинок 4",48.464717,35.046183
00b3d52f-0d78-487c-b5e4-836dea432925,"КОМУНАЛЬНЕ НЕКОМЕРЦІЙНЕ ПІДПРИЄМСТВО ""КИЇВСЬКА МІСЬКА КЛІНІЧНА ЛІКАРНЯ №1"" ВИКОНАВЧОГО ОРГАНУ КИЇВСЬКОЇ МІСЬКОЇ РАДИ (КИЇВСЬКОЇ МІСЬКОЇ ДЕРЖАВНОЇ АДМІНІСТРАЦІЇ)",01981738,Спеціалізована,Комунальна,kcrz@ukr.net,"+380506950096, +380445646534",Іванько Олександр Вікторович,М.КИЇВ,КИЇВ,"Україна, 02091, місто Київ, ВУЛИЦЯ ХАРКІВСЬКЕ ШОСЕ , будинок 121",50.4138155,30.6658589
00babe6a-f61f-4984-80e5-e4889238dc34,ЧОРНОБАЙ МИРОСЛАВА ВОЛОДИМИРІВНА,ФОП,Первинна,ФОП,muroska91@ukr.net,+380988429648,Чорнобай Мирослава Володимирівна,ТЕРНОПІЛЬСЬКА,ШУМСЬК,"Україна, 47100, Тернопільська обл., Шумський р-н, місто Шумськ, ВУЛИЦЯ УКРАЇНСЬКА, будинок 93",50.116847,26.1172791
00c0b236-ff27-48a0-80f1-658420fffca5,"КОМУНАЛЬНЕ НЕКОМЕРЦІЙНЕ ПІДПРИЄМСТВО ТАРАЩАНСЬКОЇ МІСЬКОЇ РАДИ ""ТАРАЩАНСЬКИЙ ЦЕНТР ПЕРВИННОЇ МЕДИЧНОЇ (МЕДИКО-САНІТАРНОЇ) ДОПОМОГИ""",38230449,Первинна,Комунальна,taracpmsd@gmail.com,+380456653389,Антонець Петро Ігнатович,КИЇВСЬКА,ТАРАЩА,"Україна, 09501, Київська обл., Білоцерківський р-н, місто Тараща, вул.Шевченка, будинок 64",49.5619951,30.4973909
00e03ca6-f1ed-46ce-bc6a-32bc695536ef,"Комунальне некомерційне підприємство ""Медичний центр Сім'я""",40390032,Первинна,Комунальна,pmdmukachevo@mukachevo-rada.gov.ua,+380950000343,Чубірко Мирослава Михайлівна,ЗАКАРПАТСЬКА,МУКАЧЕВО,"Україна, 89600, Закарпатська обл., місто Мукачево, ВУЛИЦЯ ЯРОСЛАВА МУДРОГО, будинок 48",48.4493055,22.7117106
00f48d24-0c46-4f78-ace7-d14d87468825,ЛАВРЕНЧУК ІРИНА ОЛЕГІВНА,ФОП,Первинна,ФОП,smurfeta2407@gmail.com,+380675556000,Лавренчук Ірина Олегівна,ЖИТОМИРСЬКА,ЧУДНІВ,"Україна, 13201, Житомирська обл., Чуднівський р-н, місто Чуднів, ВУЛИЦЯ ВАТУТІНА, будинок 13, квартира 03",50.055693,28.1177
00f5db16-2dc8-4da7-9c97-3cad86550d14,ВАВДІЮК ЛЮДМИЛА ВОЛОДИМИРІВНА,ФОП,Первинна,ФОП,lyudashevchik0@gmail.com,+380969675386,Вавдіюк Людмила Володимирівна,ВОЛИНСЬКА,РАКІВ ЛІС,"Україна, 44524, Волинська обл., Камінь-Каширський р-н, село Раків Ліс, вул.Довга-Нива, будинок 26",51.6203554,24.9194196
010c6f03-041f-482a-8508-c4c8292b9fda,"КОМУНАЛЬНЕ НЕКОМЕРЦІЙНЕ ПІДПРИЄМСТВО ""ВРАДІЇВСЬКИЙ РАЙОННИЙ ЦЕНТР ПЕРВИННОЇ МЕДИКО-САНІТАРНОЇ ДОПОМОГИ"" ВРАДІЇВСЬКОЇ СЕЛИЩНОЇ РАДИ",38304997,Первинна,Комунальна,vradpmsd@ukr.net,+380513591882,Боровицький Ігор Васильович,МИКОЛАЇВСЬКА,ВРАДІЇВКА,"Україна, 56301, Миколаївська обл., Врадіївський р-н, селище міського типу Врадіївка, ВУЛИЦЯ АГРАРНА, будинок 2",47.8658976,30.5905504
010d8dba-c528-49e2-9849-2419a63d618f,СОКУР ЛАРИСА ЛЕОНІДІВНА,ФОП,Первинна,ФОП,sokurll1980@ukr.net,+380993407011,Сокур Лариса Леонідівна,КІРОВОГРАДСЬКА,ОЛЕКСАНДРІЯ,"Україна, 28000, Кіровоградська обл., місто Олександрія, ВУЛИЦЯ ПЕРШОТРАВНЕВА, будинок 51, квартира 119",48.6632703,33.0967875
01152774-c0dd-47b1-92ae-39c37754ccd9,"КОМУНАЛЬНЕ НЕКОМЕРЦІЙНЕ ПІДПРИЄМСТВО ""КУТСЬКА МІСЬКА ЛІКАРНЯ"" КУТСЬКОЇ СЕЛИЩНОЇ РАДИ КОСІВСЬКОГО РАЙОНУ ІВАНО-ФРАНКІВСЬКОЇ ОБЛАСТІ",25064231,Первинна,Комунальна,kytu_likarnia@i.ua,+380347845379,Грабовецький Ігор Ярославович,ІВАНО-ФРАНКІВСЬКА,КУТИ,"Україна, 78665, Івано-Франківська обл., Косівський р-н, селище міського типу Кути, ВУЛИЦЯ ПАВЛИКА, будинок 3",48.2629668,25.1738286
012f2de2-416d-4b5a-9a44-77819b63d768,"ТОВАРИСТВО З ОБМЕЖЕНОЮ ВІДПОВІДАЛЬНІСТЮ ""МЕДІКАЛ КЕАР""",43563576,Первинна,Приватна (без ФОП),medicalcare@ukr.net,+380964038689,Гамій Лариса Іларіонівна,ДНІПРОПЕТРОВСЬКА,ДНІПРО,"Україна, 49000, Дніпропетровська обл., місто Дніпро, вул.Свєтлова, будинок 42А, приміщення 18",48.464717,35.046183
0159510a-d01c-4ca4-8aa6-7466c4abc123,"КОМУНАЛЬНЕ НЕКОМЕРЦІЙНЕ ПІДПРИЄМСТВО ХАРКІВСЬКОЇ ОБЛАСНОЇ РАДИ ""ОБЛАСНА КЛІНІЧНА ЛІКАРНЯ""",02003563,Спеціалізована,Комунальна,hokb07@ukr.net,+380577050187,Лобойко Костянтин Миколайович,ХАРКІВСЬКА,ХАРКІВ,"Україна, 61058, Харківська обл., місто Харків, ПРОСПЕКТ НЕЗАЛЕЖНОСТІ, будинок 13",50.0020126,36.3073994
017cc4a9-6599-41dd-9e86-85dcfd49e81a,ПОЛЬНИЙ АНДРІЙ МИРОСЛАВОВИЧ,ФОП,Первинна,ФОП,doktorsm@gmail.com,+380965505404,Польний Андрій Мирославович,ТЕРНОПІЛЬСЬКА,ТЕРНОПІЛЬ,"Україна, 46002, Тернопільська обл., місто Тернопіль, ВУЛИЦЯ ГАЛИЦЬКА, будинок 52, квартира 67",49.5510443,25.5952184
0192684a-aa38-4bd0-9ee9-e377b0673280,"КОМУНАЛЬНЕ НЕКОМЕРЦІЙНЕ ПІДПРИЄМСТВО ""МІСЬКА ПОЛІКЛІНІКА № 20"" ХАРКІВСЬКОЇ МІСЬКОЇ РАДИ",34017656,Первинна,Комунальна,poliklinika20@ukr.net,+380577255538,Чиркіна Вікторія Вікторівна,ХАРКІВСЬКА,ХАРКІВ,"Україна, 61068, Харківська обл., місто Харків, пр.Героїв Харкова, будинок 179",49.9514727,36.3869219
019a7d41-15a4-4c52-8ec5-7a87bc5d1e15,"КОМУНАЛЬНЕ НЕКОМЕРЦІЙНЕ ПІДПРИЄМСТВО ""МИРОПІЛЬСЬКА АМБУЛАТОРІЯ ЗАГАЛЬНОЇ ПРАКТИКИ СІМЕЙНОЇ МЕДИЦИНИ""  МИРОПІЛЬСЬКОЇ СЕЛИЩНОЇ РАДИ",41536630,Первинна,Комунальна,olenamp@ukr.net,+380686631324,Мельник Олена Петрівна,ЖИТОМИРСЬКА,МИРОПІЛЬ,"Україна, 13033, Житомирська обл., Житомирський р-н, селище міського типу Миропіль, вул.Центральна, будинок 67",50.1068934,27.7077665
01bb80f5-49ff-47fa-b3ab-ad7ad3d9d197,"КОМУНАЛЬНЕ НЕКОМЕРЦІЙНЕ ПІДПРИЄМСТВО ""ДИТЯЧА КЛІНІЧНА ЛІКАРНЯ № 9 ПОДІЛЬСЬКОГО РАЙОНУ МІСТА КИЄВА"" ВИКОНАВЧОГО ОРГАНУ КИЇВСЬКОЇ МІСЬКОЇ РАДИ (КИЇВСЬКОЇ МІСЬКОЇ ДЕРЖАВНОЇ АДМІНІСТРАЦІЇ)",05492290,Спеціалізована,Комунальна,kmdkl9@ukr.net,+380444685070,Міллер Аріна Юріївна,М.КИЇВ,КИЇВ,"Україна, 04073, місто Київ, ВУЛИЦЯ КОПИЛІВСЬКА, будинок 1/7",50.4859954,30.4693864
01ce0e5e-ffef-4397-9f85-ca6aa9fc393a,"КОМУНАЛЬНЕ НЕКОМЕРЦІЙНЕ ПІДПРИЄМСТВО ""ЦЕНТР ПЕРВИННОЇ МЕДИКО-САНІТАРНОЇ ДОПОМОГИ СХІДНИЦЬКОЇ СЕЛИЩНОЇ РАДИ""",44397639,Первинна,Комунальна,shidnytsa-pervynka@ukr.net,+380673147397,Скурчанський Юрій Михайлович,ЛЬВІВСЬКА,БОРИСЛАВ(З),"Україна, 82391, Львівська обл., місто Борислав(з), селище міського типу Східниця(з), вул.Золота Баня, будинок 3",49.2296659,23.3488619
01e1ecd4-b80c-4fa5-9e09-52157413d637,"ТОВАРИСТВО З ОБМЕЖЕНОЮ ВІДПОВІДАЛЬНІСТЮ ""ІНТЕЛЕКТМЕД""",42704775,Первинна,Приватна (без ФОП),inelektmedtychiv@gmail.com,+380964325170,Янчій Віталія Андріївна,ЗАКАРПАТСЬКА,ТЯЧІВ,"Україна, 90500, Закарпатська обл., Тячівський р-н, місто Тячів, ВУЛИЦЯ ГОЛЛОШІ, будинок 56, корпус ""Д""",48.017152,23.5724669
01ed75c7-7526-49c1-9943-55f9eaa7a4ad,"КОМУНАЛЬНЕ НЕКОМЕРЦІЙНЕ ПІДПРИЄМСТВО ""ДРУЖБІВСЬКИЙ ЦЕНТР ПЕРВИННОЇ МЕДИКО-САНІТАРНОЇ ДОПОМОГИ "" ДРУЖБІВСЬКОЇ МІСЬКОЇ РАДИ ШОСТКИНСЬКОГО РАЙОНУ СУМСЬКОЇ ОБЛАСТІ",41777821,Первинна,Комунальна,s.02111970n@gmail.com,+380979636001,Супрун Михайло Володимирович,СУМСЬКА,ДРУЖБА,"Україна, 41220, Сумська обл., Шосткинський р-н, місто Дружба, вул.Заводська, будинок 6",52.0402452,33.9293828
01f61947-2a93-4ea3-9b94-e3e236103b84,"КОМУНАЛЬНЕ НЕКОМЕРЦІЙНЕ ПІДПРИЄМСТВО ""СОСНІВСЬКА МІСЬКА ЛІКАРНЯ  ЧЕРВОНОГРАДСЬКОЇ МІСЬКОЇ РАДИ""",43260585,Спеціалізована,Комунальна,mlsosnivka@gmail.com,+380995526283,Кінах Юрій Васильович,ЛЬВІВСЬКА,СОСНІВКА,"Україна, 80193, Львівська обл., Червоноградський р-н, місто Соснівка, вул.Грушевського, будинок 36",50.2940634,24.2508161
0200b889-1157-4ed5-a32b-dccbd7c219ae,Петрук Світлана  Валентинівна,ФОП,Первинна,ФОП,luceomed@gmail.com,+380959209654,Петрук Світлана Валентинівна,М.КИЇВ,КИЇВ,"Україна, 02140, місто Київ, вул.Вишняківська, будинок 8, квартира 73",0.0,0.0
0200dc74-58f1-4f21-a022-7ac4ff9ae4b4,"КОМУНАЛЬНЕ НЕКОМЕРЦІЙНЕ ПІДПРИЄМСТВО ""КИЇВСЬКА МІСЬКА КЛІНІЧНА ЛІКАРНЯ №18"" ВИКОНАВЧОГО ОРГАНУ КИЇВСЬКОЇ МІСЬКОЇ РАДИ (КИЇВСЬКОЇ МІСЬКОЇ ДЕРЖАВНОЇ АДМІНІСТРАЦІЇ)",01993776,Спеціалізована,Комунальна,kmkl18@ukr.net,+380442354056,Крижевський Вадим Віталійович,М.КИЇВ,КИЇВ,"Україна, 01030, місто Київ, БУЛЬВАР ТАРАСА ШЕВЧЕНКА, будинок 17",50.4433484,30.5092117
020320cf-798f-412f-8573-2b91dee9d585,"КОМУНАЛЬНЕ НЕКОМЕРЦІЙНЕ ПІДПРИЄМСТВО ""ПОНОРНИЦЬКИЙ ЦЕНТР ПЕРВИННОЇ МЕДИКО-САНІТАРНОЇ ДОПОМОГИ"" ПОНОРНИЦЬКОЇ СЕЛИЩНОЇ РАДИ",44487753,Первинна,Комунальна,ponornica.likarnya@gmail.com,+380961774467,Гончарова Дарина Іванівна,ЧЕРНІГІВСЬКА,ПОНОРНИЦЯ,"Україна, 16220, Чернігівська обл., Новгород-Сіверський р-н, селище міського типу Понорниця, вул.Свириденка, будинок 10",51.7232834,32.8476241
02357b44-b957-4250-8bc9-58699622d9ec,"КОМУНАЛЬНЕ НЕКОМЕРЦІЙНЕ ПІДПРИЄМСТВО ""БУЗЬКИЙ ЦЕНТР ПЕРВИННОЇ МЕДИКО-САНІТАРНОЇ ДОПОМОГИ"" БУЗЬКОЇ СІЛЬСЬКОЇ РАДИ",38341981,Первинна,Комунальна,vozn_rcpmsd@ukr.net,+380661125393,Жарська Галина Андріївна,МИКОЛАЇВСЬКА,БУЗЬКЕ(З),"Україна, 56541, Миколаївська обл., Вознесенський р-н, село Бузьке(з), пл.Центральна, будинок 1",47.5741942,31.3160366
02360de5-e3ca-448f-beb2-dd407cb621bb,"КОМУНАЛЬНЕ НЕКОМЕРЦІЙНЕ ПІДПРИЄМСТВО ""ГОРОДОЦЬКА ЦЕНТРАЛЬНА ЛІКАРНЯ"" ГОРОДОЦЬКОЇ МІСЬКОЇ РАДИ ЛЬВІВСЬКОЇ ОБЛАСТІ",01997863,Спеціалізована,Комунальна,gorcrl@ukr.net,"+380677791076, +380323130148",Фалинський Павло Омелянович,ЛЬВІВСЬКА,ГОРОДОК,"Україна, 81500, Львівська обл., Львівський р-н, місто Городок, вул.Коцюбинського М., будинок 18",49.7821352,23.6611306
023d4811-e8fd-406f-9ebe-f6dacf819cb3,"КОМУНАЛЬНЕ НЕКОМЕРЦІЙНЕ ПІДПРИЄМСТВО ""ЦЕНТР ПЕРВИННОЇ МЕДИКО-САНІТАРНОЇ ДОПОМОГИ"" ГУМЕНЕЦЬКОЇ СІЛЬСЬКОЇ РАДИ КАМ'ЯНЕЦЬ-ПОДІЛЬСЬКОГО РАЙОНУ ХМЕЛЬНИЦЬКОЇ ОБЛАСТІ",42579187,Первинна,Комунальна,cpmsd_gumenetskoi_sr@ukr.net,+380976103342,Здоровецький Дмитро Миколайович,ХМЕЛЬНИЦЬКА,ГУМЕНЦІ,"Україна, 32325, Хмельницька обл., Кам'янець-Подільський р-н, село Гуменці, вул.Центральна, будинок 69",48.7599392,26.6266731
023e43c8-3d6c-49cd-8df4-532f6b889ca9,"КОМУНАЛЬНЕ НЕКОМЕРЦІЙНЕ ПІДПРИЄМСТВО ""ЦАРИЧАНСЬКИЙ  ЦЕНТР ПЕРВИННОЇ МЕДИКО - САНІТАРНОЇ ДОПОМОГИ"" ЦАРИЧАНСЬКОЇ СЕЛИЩНОЇ РАДИ",37730625,Первинна,Комунальна,tslik_cpmsd@ukr.net,"+380964117554, +380569032719",Дениско Наталія Валентинівна,ДНІПРОПЕТРОВСЬКА,ЦАРИЧАНКА,"Україна, 51000, Дніпропетровська обл., Дніпровський р-н, селище міського типу Царичанка, вул.Царичанська, будинок 134 А",48.9473321,34.4704269
024e9da2-10aa-4381-8377-7421a178e589,ГЕДЗЮК ОЛЕНА МИКОЛАЇВНА,ФОП,Первинна,ФОП,gedzukolena@gmail.com,+380683346498,Гедзюк Олена Миколаївна,ХМЕЛЬНИЦЬКА,ВОЛОЧИСЬК,"Україна, 31200, Хмельницька обл., Хмельницький р-н, місто Волочиськ, вул.Бандери Степана, будинок 2"" б"", квартира 95",49.5345161,26.2093072
025b2ba5-e467-4530-8179-b49f1bd9d239,"КОМУНАЛЬНЕ НЕКОМЕРЦІЙНЕ ПІДПРИЄМСТВО СТЕПАНІВСЬКОЇ СЕЛИЩНОЇ РАДИ ""АМБУЛАТОРІЯ ЗАГАЛЬНОЇ ПРАКТИКИ-СІМЕЙНОЇ МЕДИЦИНИ СМТ.СТЕПАНІВКА""",41828399,Первинна,Комунальна,knpstep@gmail.com,+380542778555,Гирман Світлана Анатоліївна,СУМСЬКА,СТЕПАНІВКА,"Україна, 42305, Сумська обл., Сумський р-н, селище міського типу Степанівка, ВУЛИЦЯ ПРОМИСЛОВА, будинок 3",50.9400402,34.6323712
0269e1f4-bdac-4c10-b913-fbb365941270,БЄЛОВА АНАСТАСІЯ ДМИТРІВНА,ФОП,Первинна,ФОП,familydoctordnipro@gmail.com,+380966181839,Бєлова Анастасія Дмитрівна,ДНІПРОПЕТРОВСЬКА,СЛОБОЖАНСЬКЕ(ПН),"Україна, 52005, Дніпропетровська обл., Дніпровський р-н, селище міського типу Слобожанське(пн), вул.Спортивна, будинок 1, квартира 51",48.4215649,35.1325443
02c64c4b-6cc3-48ac-9efc-233e4c02f0dd,"КОМУНАЛЬНЕ НЕКОМЕРЦІЙНЕ ПІДПРИЄМСТВО ""ЄЛАНЕЦЬКИЙ  ЦЕНТР ПЕРВИННОЇ МЕДИКО-САНІТАРНОЇ ДОПОМОГИ"" ЄЛАНЕЦЬКОЇ СЕЛИЩНОЇ РАДИ МИКОЛАЇВСЬКОЇ ОБЛАСТІ",38339071,Первинна,Комунальна,elan_pmsd@ukr.net,+380515991158,Мачушенко Валентина Іванівна,МИКОЛАЇВСЬКА,ЄЛАНЕЦЬ,"Україна, 55501, Миколаївська обл., Вознесенський р-н, селище міського типу Єланець, вул.Паркова, будинок 55",47.6953092,31.8523332
02f762d9-e27d-4ba6-a3d6-6fa8f0c10daa,ЯВТУШЕНКО ЮРІЙ ОЛЕКСІЙОВИЧ,ФОП,Первинна,ФОП,ksl_yavtushenko@holding.zone,+380965599635,ЯВТУШЕНКО ЮРІЙ ОЛЕКСІЙОВИЧ,ПОЛТАВСЬКА,ПОЛТАВА,"Україна, 36039, Полтавська обл., місто Полтава, ВУЛИЦЯ ВАТУТІНА, будинок 19, квартира 32",49.5904532,34.5358569
03079eb1-5d5f-4ce3-80c5-92a1361fc683,"ТОВАРИСТВО З ОБМЕЖЕНОЮ ВІДПОВІДАЛЬНІСТЮ ""АСІСТАНС СЕРВІС""",30850322,Первинна,Приватна (без ФОП),medassist.zp.ua@ukr.net,+380503223377,Сахаров Андрій Миколайович,ЗАПОРІЗЬКА,ЗАПОРІЖЖЯ,"Україна, 69035, Запорізька обл., місто Запоріжжя, ВУЛИЦЯ СТАЛЕВАРІВ, будинок 17",47.8501509,35.0988059
030a76a7-d4c7-43fe-9feb-92955ee4c1bb,"КОМУНАЛЬНЕ ПІДПРИЄМСТВО ""РІВНЕНСЬКИЙ ОБЛАСНИЙ СПЕЦІАЛІЗОВАНИЙ ДИСПАНСЕР РАДІАЦІЙНОГО ЗАХИСТУ НАСЕЛЕННЯ"" РІВНЕНСЬКОЇ ОБЛАСНОЇ РАДИ",02000116,Спеціалізована,Комунальна,rosdrzn@gmail.com,+380362635153,Миронець Олександр Миколайович,РІВНЕНСЬКА,РІВНЕ,"Україна, 33028, Рівненська обл., місто Рівне, ВУЛИЦЯ В'ЯЧЕСЛАВА ЧОРНОВОЛА, будинок 79",50.6190674,26.2521127
030ca1a6-b4e7-49a2-b655-c7f78aeb40e6,"КОМУНАЛЬНЕ НЕКОМЕРЦІЙНЕ МЕДИЧНЕ ПІДПРИЄМСТВО ""ЦЕНТР ПЕРВИННОЇ МЕДИКО-САНІТАРНОЇ ДОПОМОГИ №1"" М.КРЕМЕНЧУКА",38742830,Первинна,Комунальна,kremencenter1@ukr.net,+380536758414,Тарасова Наталія Євгеніївна,ПОЛТАВСЬКА,КРЕМЕНЧУК,"Україна, 39600, Полтавська обл., місто Кременчук, ВУЛИЦЯ ІВАНА МАЗЕПИ, будинок 26",49.0683261,33.4088644
031f8a15-6ed5-4e29-86a1-440cabfae2ae,"КОМУНАЛЬНЕ НЕКОМЕРЦІЙНЕ ПІДПРИЄМСТВО ""БЕРЕГОМЕТСЬКИЙ ЦЕНТР ПЕРВИННОЇ МЕДИКО-САНІТАРНОЇ ДОПОМОГИ"" БЕРЕГОМЕТСЬКОЇ СЕЛИЩНОЇ РАДИ ВИЖНИЦЬКОГО РАЙОНУ ЧЕРНІВЕЦЬКОЇ ОБЛАСТІ",36753285,Первинна,Комунальна,cpmsd-ber@med.cv.ua,+380373036536,Одочук Надія Степанівна,ЧЕРНІВЕЦЬКА,БЕРЕГОМЕТ,"Україна, 59233, Чернівецька обл., Вижницький р-н, селище міського типу Берегомет, ВУЛИЦЯ ЦЕНТРАЛЬНА, будинок 12",48.1782952,25.3426628
03261781-bc3b-49c8-9a35-b7858c3a01c3,"КОМУНАЛЬНЕ НЕКОМЕРЦІЙНЕ ПІДПРИЄМСТВО ""СУДОВОВИШНЯНСЬКИЙ ЦЕНТР ПЕРВИННОЇ МЕДИКО-САНІТАРНОЇ ДОПОМОГИ"" СУДОВОВИШНЯНСЬКОЇ МІСЬКОЇ РАДИ ЛЬВІВСЬКОЇ ОБЛАСТІ",41136480,Первинна,Комунальна,makarukha1204@gmail.com,+380979276552,Макаруха Юрій Іванович,ЛЬВІВСЬКА,СУДОВА ВИШНЯ,"Україна, 81340, Львівська обл., Яворівський р-н, місто Судова Вишня, вул.Сагайдачного, будинок  5",49.7905276,23.3699447
0340e34e-318c-438e-b136-a56af8e2bb60,"ДЕРЖАВНА УСТАНОВА ""ТЕРИТОРІАЛЬНЕ МЕДИЧНЕ ОБ'ЄДНАННЯ МІНІСТЕРСТВА ВНУТРІШНІХ СПРАВ УКРАЇНИ ПО МІСТУ КИЄВУ ТА КИЇВСЬКІЙ ОБЛАСТІ""",37027405,Спеціалізована,Державна,kiev-tmo@mvs.gov.ua,+380444832851,Безух Лариса Миколаївна,М.КИЇВ,КИЇВ,"Україна, 04050, місто Київ, ВУЛИЦЯ ПЛАТОНА МАЙБОРОДИ, будинок 19",50.4696446,30.4764455
0366fa21-74b0-4208-b2fb-1de6ebab13b6,"комунальне некомерційне підприємство ""Центр первинної медико-санітарної допомоги Боратинської сільської ради""",44119515,Первинна,Комунальна,knp.cpmsd.bsr@gmail.com,+380951870811,Чертюк Оксана Петрівна,ВОЛИНСЬКА,БОРАТИН,"Україна, 45605, Волинська обл., Луцький р-н, село Боратин, вул.Центральна, будинок 2А",50.7031585,25.3676564
03841d1a-cf0b-446f-a67d-9becbeebeaf2,"КОМУНАЛЬНЕ НЕКОМЕРЦІЙНЕ ПІДПРИЄМСТВО ""БУРШТИНСЬКИЙ МІСЬКИЙ ЦЕНТР ПЕРВИННОЇ МЕДИКО-САНІТАРНОЇ ДОПОМОГИ"" БУРШТИНСЬКОЇ МІСЬКОЇ РАДИ ІВАНО-ФРАНКІВСЬКОЇ ОБЛАСТІ",42244782,Первинна,Комунальна,burshtyn.pervynka@gmail.com,+380343844006,Савчин Оксана Михайлівна,ІВАНО-ФРАНКІВСЬКА,БУРШТИН(ПН),"Україна, 77111, Івано-Франківська обл., місто Бурштин(пн), ВУЛИЦЯ ШУХЕВИЧА, будинок 15",49.2488098,24.6275902
038d1313-cb71-4d39-b511-3dda26879a9f,"КОМУНАЛЬНЕ НЕКОМЕРЦІЙНЕ ПІДПРИЄМСТВО ""ЦЕНТР ПЕРВИННОЇ МЕДИКО-САНІТАРНОЇ ДОПОМОГИ № 1"" КРАМАТОРСЬКОЇ МІСЬКОЇ РАДИ",37944301,Первинна,Комунальна,centr1k.sekretar@gmail.com,+380503570477,Власенко Олександр Борисович,ДОНЕЦЬКА,КРАМАТОРСЬК,"Україна, 84306, Донецька обл., місто Краматорськ, ВУЛИЦЯ ДНІПРОВСЬКА, будинок 17",48.738967,37.58435
0396a814-2327-491d-95d5-5fb452f72f15,"КОМУНАЛЬНЕ НЕКОМЕРЦІЙНЕ ПІДПРИЄМСТВО СУМСЬКОЇ ОБЛАСНОЇ РАДИ ""СУМСЬКИЙ ОБЛАСНИЙ ДІАГНОСТИЧНИЙ ЦЕНТР""",14019167,Спеціалізована,Комунальна,sodc18@i.ua,+380542789960,0,СУМСЬКА,СУМИ,"Україна, 40020, Сумська обл., місто Суми, вул.Ковпака, будинок 18",50.9077,34.7981
039b5390-5877-4d3f-902b-003ca7b18ccd,"КОМУНАЛЬНЕ НЕКОМЕРЦІЙНЕ ПІДПРИЄМСТВО ""МІСЬКА ПОЛІКЛІНІКА №17"" ХАРКІВСЬКОЇ МІСЬКОЇ РАДИ",03003683,Спеціалізована,Комунальна,gp17bud@ukr.net,+380577250825,Яковлева Олена Володимирівна,ХАРКІВСЬКА,ХАРКІВ,"Україна, 61166, Харківська обл., місто Харків, ВУЛИЦЯ БАКУЛІНА, будинок 4",50.0020126,36.3073994
03a71f73-dc34-48ea-b250-286eef377bff,ТУРЕНКО ТЕТЯНА ВОЛОДИМИРІВНА,ФОП,Первинна,ФОП,tyrenkotat@gmail.com,+380502322492,Туренко Тетяна Володимирівна,ХАРКІВСЬКА,ЛОЗОВА,"Україна, 64602, Харківська обл., місто Лозова, ВУЛИЦЯ СВЯТО-МИКОЛАЇВСЬКА, будинок 11, квартира 32",48.889517,36.3192963
03df402c-cfba-4862-a7de-e19ef9065b90,БОДНАР ЮЛІЯ АНАТОЛІЇВНА,ФОП,Первинна,ФОП,uulia221@gmail.com,+380970379332,Боднар Юлія Анатоліївна,ЗАПОРІЗЬКА,ЗАПОРІЖЖЯ,"Україна, 69095, Запорізька обл., місто Запоріжжя, вул.Гоголя, будинок 163, квартира 28",47.8392841,35.1387097
03f0e063-7698-41d7-89a2-1655e2848de4,"КОМУНАЛЬНЕ НЕКОМЕРЦІЙНЕ ПІДПРИЄМСТВО ""ТЕПЛОДАРСЬКИЙ ЦЕНТР ПЕРВИННОЇ МЕДИКО-САНІТАРНОЇ ДОПОМОГИ"" ТЕПЛОДАРСЬКОЇ МІСЬКОЇ РАДИ ОДЕСЬКОГО РАЙОНУ ОДЕСЬКОЇ ОБЛАСТІ",02063387,Первинна,Комунальна,teplodar.cmltmr@gmail.com,+380487053495,Запорожан Майя Афанасіївна,ОДЕСЬКА,ТЕПЛОДАР,"Україна, 65490, Одеська обл., Одеський р-н, місто Теплодар, вул.Польова, будинок 2",46.5028082,30.3281402
040fecd9-6585-4910-97bb-c5bf6850016d,"ТОВАРИСТВО З ОБМЕЖЕНОЮ ВІДПОВІДАЛЬНІСТЮ ""РАЙОННА ПОЛІКЛІНІКА""",40138204,Первинна,Приватна (без ФОП),rivne.clinic@gmail.com,+380977775524,Остапчук Валентин Васильович,РІВНЕНСЬКА,РІВНЕ(З),"Україна, 33001, Рівненська обл., місто Рівне(з), вул.Дніпровська, будинок 4",50.6203629,26.2281257
0415eedc-6e31-4734-bb40-9d5a9bd72a47,"КОМУНАЛЬНЕ НЕКОМЕРЦІЙНЕ ПІДПРИЄМСТВО ""МОГИЛІВ-ПОДІЛЬСЬКИЙ МІСЬКИЙ ЦЕНТР ПЕРВИННОЇ МЕДИКО-САНІТАРНОЇ ДОПОМОГИ"" МОГИЛІВ-ПОДІЛЬСЬКОЇ МІСЬКОЇ РАДИ",38031318,Первинна,Комунальна,m.cpmsd@i.ua,"+380433763668, +380433763668",Череватова Наталя Павлівна,ВІННИЦЬКА,МОГИЛІВ-ПОДІЛЬСЬКИЙ,"Україна, 24000, Вінницька обл., місто Могилів-Подільський, ВУЛИЦЯ ПОЛТАВСЬКА, будинок 89/2",48.4584391,27.7929285
0463cbe0-15b5-4808-b390-0ddef700f0aa,"КОМУНАЛЬНЕ НЕКОМЕРЦІЙНЕ ПІДПРИЄМСТВО ""КОВАЛІВСЬКИЙ ЦЕНТР ПЕРВИННОЇ МЕДИКО-САНІТАРНОЇ ДОПОМОГИ"" КОВАЛІВСЬКОЇ СІЛЬСЬКОЇ РАДИ",43143387,Первинна,Комунальна,kovalivska.knp@ukr.net,+380971741624,Сафронов Микола Миколайович,КИЇВСЬКА,КОВАЛІВКА,"Україна, 08652, Київська обл., Білоцерківський р-н, село Ковалівка, вул.Монастирська, будинок 1",49.9825722,30.0123826
0471379f-58ca-42b0-a421-e9ac48744690,"ТОВАРИСТВО З ОБМЕЖЕНОЮ ВІДПОВІДАЛЬНІСТЮ ""ПРОФМЕДОГЛЯД""",35093261,Первинна,Приватна (без ФОП),profmed-75@ukr.net,+380443317475,Усікова Вікторія Геннадіївна,М.КИЇВ,КИЇВ,"Україна, 02121, місто Київ, ВУЛ. ДЕКАБРИСТІВ, будинок 8-А",50.405981,30.6527028
0472734a-ec0d-4f48-8318-2aa2d4067c80,"КОМУНАЛЬНЕ НЕКОМЕРЦІЙНЕ ПІДПРИЄМСТВО ""БІЛОКУРАКИНСЬКИЙ ЦЕНТР ПЕРВИННОЇ МЕДИКО-САНІТАРНОЇ ДОПОМОГИ""",38016132,Первинна,Комунальна,knpbil.pmcd@gmail.com,+380645222029,Давидова Наталія Вікторівна,ЛУГАНСЬКА,БІЛОКУРАКИНЕ,"Україна, 92202, Луганська обл., Сватівський р-н, селище міського типу Білокуракине, вул.Центральна, будинок 72",49.5296544,38.7329968
0482015d-e493-4bb2-abe0-f63d8e9c59cc,"Комунальне некомерційне підприємство  ""Балаклійський центр первинної медико-санітарної допомоги"" Балаклійської міської ради Харківської області",38610896,Первинна,Комунальна,balmedcentr@ukr.net,+380574953183,Глізнуца Мар'я Андріївна,ХАРКІВСЬКА,БАЛАКЛІЯ(З),"Україна, 64207, Харківська обл., Балаклійський р-н, місто Балаклія(з), вул.Соборна, будинок 98",49.4529684,36.834949
048d6cca-1c0e-43af-968a-29cc296705db,"КОМУНАЛЬНЕ НЕКОМЕРЦІЙНЕ ПІДПРИЄМСТВО ""5-А МІСЬКА КЛІНІЧНА ПОЛІКЛІНІКА М.ЛЬВОВА""",23957835,Спеціалізована,Комунальна,5kmp_uoz_lviv@ukr.net,+380322368707,Малетич Олег Ярославович,ЛЬВІВСЬКА,ЛЬВІВ,"Україна, 79022, Львівська обл., місто Львів, ВУЛИЦЯ ВИГОВСЬКОГО, будинок 32",49.839683,24.029717
04a978d6-8383-4e7f-87d6-ca3cee7c948b,"КОМУНАЛЬНЕ НЕКОМЕРЦІЙНЕ ПІДПРИЄМСТВО ""ЦЕНТР ПЕРВИННОЇ МЕДИЧНОЇ ДОПОМОГИ М.БАХМУТА""",37868949,Первинна,Комунальна,artemcpmsd@ukr.net,+380627441563,Шабаліна Світлана Вікторівна,ДОНЕЦЬКА,БАХМУТ,"Україна, 84500, Донецька обл., місто Бахмут, ВУЛИЦЯ О.СИБІРЦЕВА, будинок 15",48.5986674,37.9980367
04bde4e7-15b3-4066-b4d9-472980174daf,"КОМУНАЛЬНЕ НЕКОМЕРЦІЙНЕ ПІДПРИЄМСТВО ""БЕРЕЗІВСЬКИЙ МІСЬКИЙ ЦЕНТР ПЕРВИННОЇ МЕДИКО-САНІТАРНОЇ ДОПОМОГИ"" БЕРЕЗІВСЬКОЇ МІСЬКОЇ РАДИ ОДЕСЬКОЇ ОБЛАСТІ",38822156,Первинна,Комунальна,bercentrmed@ukr.net,+380485620842,Кондрашова Ірина Миколаївна,ОДЕСЬКА,БЕРЕЗІВКА,"Україна, 67300, Одеська обл., Березівський р-н, місто Березівка, ВУЛИЦЯ БОЛЬНИЧНА, будинок 6",47.2038267,30.9163475
04d1445d-b619-42c6-af3a-4eaf90354822,"Комунальне некомерційне підприємство ""Центр первинної медико - санітарної допомоги Білозерської міської ради""",43963992,Первинна,Комунальна,beloz.cpmsd@ukr.net,+380503674937,Токаренко Валентина Леонідівна,ДОНЕЦЬКА,ДОБРОПІЛЛЯ(З),"Україна, 85013, Донецька обл., місто Добропілля(з), місто Білозерське(з), вул.Фестивальна, будинок 4",48.5366665,37.057271
04d38836-e126-4ccc-9e4c-eb27b530353d,ПОЛЯНСЬКА ТЕТЯНА АНАТОЛІЇВНА,ФОП,Первинна,ФОП,polyanskatanya@gmail.com,+380995208740,Полянська Тетяна Анатоліївна,ЛЬВІВСЬКА,СТРИЙ,"Україна, 82400, Львівська обл., місто Стрий, ВУЛИЦЯ 50- РІЧЧЯ УПА, будинок 5, квартира 68",49.2656076,23.8431343
050978cb-1940-40c9-a6c0-86d245a68968,"КОМУНАЛЬНЕ НЕКОМЕРЦІЙНЕ ПІДПРИЄМСТВО ""КОНСУЛЬТАТИВНО-ДІАГНОСТИЧНИЙ ЦЕНТР №29"" ОДЕСЬКОЇ МІСЬКОЇ РАДИ",02774645,Первинна,Комунальна,29plklnk@ukr.net,+380487583614,Стоянов Анатолій Петрович,ОДЕСЬКА,ОДЕСА,"Україна, 65117, Одеська обл., місто Одеса, ВУЛИЦЯ АКАДЕМІКА ЗАБОЛОТНОГО, будинок 32А",46.4702111,30.7306393
0526a5ac-84cb-43db-8cd7-97c29e8a9b92,"КОМУНАЛЬНЕ НЕКОМЕРЦІЙНЕ ПІДПРИЄМСТВО ""КОНСУЛЬТАТИВНО-ДІАГНОСТИЧНИЙ ЦЕНТР"" ГОЛОСІЇВСЬКОГО РАЙОНУ М. КИЄВА",25695724,Спеціалізована,Комунальна,goloskdc@ukr.net,+380442572337,Омельчук Віталій Володимирович,М.КИЇВ,КИЇВ,"Україна, 03039, місто Київ, ПРОСПЕКТ ГОЛОСІЇВСЬКИЙ, будинок 59 А",50.398402,30.512126
054892fd-2a94-40a5-b76b-1cf7bbb00801,"ТОВАРИСТВО З ОБМЕЖЕНОЮ ВІДПОВІДАЛЬНІСТЮ ""ІННОВАЦІЙНИЙ ЛІКУВАЛЬНО- ОЗДОРОВЧИЙ ЦЕНТР ""АЛА АТЛАНТІС""",43749272,Первинна,Приватна (без ФОП),alaatlantis@ukr.net,"+380986342949, +380800330970",Горячева Катерина Вікторівна,ДНІПРОПЕТРОВСЬКА,ДНІПРО,"Україна, 49000, Дніпропетровська обл., місто Дніпро, пр.Гагаріна, будинок 165, 2-поверх",48.464717,35.046183
0560ab66-8316-4339-8cf7-9fb238173254,"КОМУНАЛЬНЕ НЕКОМЕРЦІЙНЕ ПІДПРИЄМСТВО ""ЦЕНТР ПЕРВИННОЇ МЕДИКО-САНІТАРНОЇ ДОПОМОГИ БІЛИЦЬКОЇ СЕЛИЩНОЇ РАДИ""",44006787,Первинна,Комунальна,bilikipmsd@ukr.net,+380668271195,Луцько Ольга Валентинівна,ПОЛТАВСЬКА,БІЛИКИ,"Україна, 39220, Полтавська обл., Полтавський р-н, селище міського типу Білики, вул.Миру, будинок 6",49.256784,34.2578589
05b92bb5-a079-42a4-95ed-9ae4e14c6f95,"КОМУНАЛЬНЕ НЕКОМЕРЦІЙНЕ ПІДПРИЄМСТВО ""БІЛОВОДСЬКА БАГАТОПРОФІЛЬНА ЛІКАРНЯ"" БІЛОВОДСЬКОЇ СЕЛИЩНОЇ РАДИ",37336064,Первинна,Комунальна,belzpsm@gmail.com,"+380660706403, +380646620003",Горбаченко Галина Іллівна,ЛУГАНСЬКА,БІЛОВОДСЬК,"Україна, 92801, Луганська обл., Старобільський р-н, селище міського типу Біловодськ, вул.Петровського ім., будинок 32",49.2088023,39.5896987
05fe98c6-bacc-450d-a258-56009aae1773,"КОМУНАЛЬНЕ НЕКОМЕРЦІЙНЕ ПІДПРИЄМСТВО ""ЛЕТИЧІВСЬКИЙ  ЦЕНТР ПЕРВИННОЇ МЕДИКО-САНІТАРНОЇ ДОПОМОГИ"" ЛЕТИЧІВСЬКОЇ СЕЛИЩНОЇ РАДИ",38270455,Первинна,Комунальна,let.cpmsd@ukr.net,+380385720367,Кухарук Наталія Леонідівна,ХМЕЛЬНИЦЬКА,ЛЕТИЧІВ,"Україна, 31500, Хмельницька обл., Хмельницький р-н, селище міського типу Летичів, вул.Савіцького Юрія, будинок 36",49.3830288,27.6306274
067163ad-78ec-45dd-b616-ea51b5b86c4d,"КОМУНАЛЬНЕ НЕКОМЕРЦІЙНЕ ПІДПРИЄМСТВО ""ЧОПОВИЦЬКИЙ СЕЛИЩНИЙ ЦЕНТР ПЕРВИННОЇ МЕДИКО-САНІТАРНОЇ ДОПОМОГИ"" ЧОПОВИЦЬКОЇ СЕЛИЩНОЇ РАДИ",42487175,Первинна,Комунальна,knp.chopovichi@ukr.net,+380931059080,Раєць Віктор Володимирович,ЖИТОМИРСЬКА,ЧОПОВИЧІ,"Україна, 11620, Житомирська обл., Малинський р-н, селище міського типу Чоповичі, ВУЛИЦЯ ВАЙСЕРА, будинок 46",50.8220499,28.9566109
06856362-f506-48d0-89ac-36a7d8d3961c,"КОМУНАЛЬНЕ НЕКОМЕРЦІЙНЕ ПІДПРИЄМСТВО ""ЦЕНТР ПЕРВИННОЇ МЕДИКО-САНІТАРНОЇ ДОПОМОГИ"" МЕЖІВСЬКОЇ СЕЛИЩНОЇ РАДИ""",37908965,Первинна,Комунальна,mezhovacpmsd@ukr.net,"+380952574038, +380563060155",Скочко Юлія Василівна,ДНІПРОПЕТРОВСЬКА,МЕЖОВА,"Україна, 52900, Дніпропетровська обл., Синельниківський р-н, селище міського типу Межова, вул.Сонячна, будинок 12",48.2580649,36.7255861
06b38311-fc11-4977-a996-fadebb52dac8,"КОМУНАЛЬНЕ НЕКОМЕРЦІЙНЕ ПІДПРИЄМСТВО ""КЛІНІЧНА ЛІКАРНЯ СВЯТОГО ПАНТЕЛЕЙМОНА"" СУМСЬКОЇ МІСЬКОЇ РАДИ",01981498,Спеціалізована,Комунальна,crkl.sumy@ukr.net,+380542665702,Поцелуєв Володимир Іванович,СУМСЬКА,СУМИ,"Україна, 40007, Сумська обл., місто Суми, вул.Марко Вовчок, будинок 2",50.8898944,34.8307848
06f23e71-cd1c-4223-84ae-540bf8dad011,"КОМУНАЛЬНЕ НЕКОМЕРЦІЙНЕ ПІДПРИЄМСТВО ""КИЇВСЬКА МІСЬКА КЛІНІЧНА ЛІКАРНЯ № 7"" ВИКОНАВЧОГО ОРГАНУ КИЇВСЬКОЇ МІСЬКОЇ РАДИ (КИЇВСЬКОЇ МІСЬКОЇ ДЕРЖАВНОЇ АДМІНІСТРАЦІЇ)",05494840,Спеціалізована,Комунальна,kmklikarnya7@gmail.com,+380444242079,Щербина Олександр Якович,М.КИЇВ,КИЇВ,"Україна, 03179, місто Київ, ВУЛИЦЯ КОТЕЛЬНИКОВА, будинок 95",50.4499612,30.353967
072cee3e-ada3-43b8-a785-4460249e995f,"КОМУНАЛЬНЕ НЕКОМЕРЦІЙНЕ ПІДПРИЄМСТВО ""ЦЕНТР ПЕРВИННОЇ МЕДИКО-САНІТАРНОЇ ДОПОМОГИ ""КОБЛЕВЕ"" КОБЛІВСЬКОЇ СІЛЬСЬКОЇ РАДИ",41372737,Первинна,Комунальна,azps@i.ua,+380633919471,Вдовиченко Альона Юріївна,МИКОЛАЇВСЬКА,КОБЛЕВЕ,"Україна, 57453, Миколаївська обл., Миколаївський р-н, село Коблеве, вул.Степова, будинок 2",46.6274254,31.1947408
07489874-fb72-4f7d-b604-28ee3778555d,"КОМУНАЛЬНЕ НЕКОМЕРЦІЙНЕ ПІДПРИЄМСТВО ""ВЕЛИКОБЕРЕЗНЯНСЬКИЙ ЦЕНТР ПЕРВИННОЇ МЕДИКО-САНІТАРНОЇ ДОПОМОГИ УЖГОРОДСЬКОЇ РАЙОННОЇ РАДИ""",38284599,Первинна,Комунальна,pmsdvb2@ukr.net,+380952212381,Цибик Тарас Володимирович,ЗАКАРПАТСЬКА,ВЕЛИКИЙ БЕРЕЗНИЙ,"Україна, 89000, Закарпатська обл., Великоберезнянський р-н, селище міського типу Великий Березний, ВУЛИЦЯ Б.ХМЕЛЬНИЦЬКОГО, будинок 4",48.8901026,22.4599276
074996fc-88ab-4112-8357-c8200d128ffe,"КОМУНАЛЬНЕ НЕКОМЕРЦІЙНЕ ПІДПРИЄМСТВО ""ХОДОРІВСЬКА МІСЬКА ЛІКАРНЯ"" ХОДОРІВСЬКОЇ МІСЬКОЇ РАДИ ЛЬВІВСЬКОЇ ОБЛАСТІ",42310851,Первинна,Комунальна,pmdhodoriv@gmail.com,"+380976116058, +380964178008",Мельник Тарас Васильович,ЛЬВІВСЬКА,ХОДОРІВ,"Україна, 81750, Львівська обл., Стрийський р-н, місто Ходорів, вул.Хмельницького Б., будинок 63",49.4077736,24.3079782
074aee23-31af-46de-850b-2cf6e8b741e5,"КОМУНАЛЬНЕ НЕКОМЕРЦІЙНЕ ПІДПРИЄМСТВО ""МІСЬКА ЛІКАРНЯ № 1"" ХАРКІВСЬКОЇ МІСЬКОЇ РАДИ",31733636,Первинна,Комунальна,lpz.osnova@ukr.net,+380577292228,Новіков Сергій Олександрович,ХАРКІВСЬКА,ХАРКІВ,"Україна, 61080, Харківська обл., місто Харків, ВУЛИЦЯ СОХОРА, будинок 5 А",49.929134,36.2581333
0775693e-b2f0-4426-96f1-eccbc3f141cd,СУПРУН НІНА ІВАНІВНА,ФОП,Первинна,ФОП,garmatanina@i.ua,+380680577795,Супрун Ніна Іванівна,КИЇВСЬКА,БОГУСЛАВ,"Україна, 09701, Київська обл., Богуславський р-н, місто Богуслав, ВУЛИЦЯ 40 РОКІВ ПЕРЕМОГИ, будинок 2, квартира 2",49.5405738,30.8772055
078014cc-cee0-4988-b66e-a1c00e8a1d7d,"КОМУНАЛЬНЕ НЕКОМЕРЦІЙНЕ ПІДПРИЄМСТВО ""БІЛЬШІВЦІВСЬКА МІСЬКА ЛІКАРНЯ"" БІЛЬШІВЦІВСЬКОЇ СЕЛИЩНОЇ РАДИ",01993397,Спеціалізована,Комунальна,izickijb@gmail.com,+380971834902,Іжицький Богдан Богданович,ІВАНО-ФРАНКІВСЬКА,БІЛЬШІВЦІ,"Україна, 77164, Івано-Франківська обл., Івано-Франківський р-н, селище міського типу Більшівці, вул.Тиха, будинок 4",49.1835908,24.7462961
078441f4-9a73-403f-8b48-5395717e6761,"КОМУНАЛЬНЕ НЕКОМЕРЦІЙНЕ ПІДПРИЄМСТВО ""ЦЕНТР ПЕРВИННОЇ МЕДИКО-САНІТАРНОЇ ДОПОМОГИ"" БІЛОВОДСЬКОЇ СЕЛИЩНОЇ РАДИ",37336085,Первинна,Комунальна,belmed.kz@gmail.com,+380646691794,Малищенко Зоя Дмитрівна,ЛУГАНСЬКА,БІЛОВОДСЬК,"Україна, 92800, Луганська обл., Старобільський р-н, селище міського типу Біловодськ, вул.Петровського ім., будинок 34",49.2054444,39.5701867
07896853-d53e-4479-90a1-f044dec92fe5,ТАРАН СЕРГІЙ КОСТЯНТИНОВИЧ,ФОП,Первинна,ФОП,taransk1961@gmail.com,+380977457430,Таран Сергій Костянтинович,ДНІПРОПЕТРОВСЬКА,ІЛАРІОНОВЕ,"Україна, 52520, Дніпропетровська обл., Синельниківський р-н, селище міського типу Іларіонове, ВУЛИЦЯ ЗАПОРІЗЬКА, будинок 24",48.4033581,35.2772701
07e7a0cd-2302-4aff-baba-cc5de2aba561,"КОМУНАЛЬНЕ НЕКОМЕРЦІЙНЕ ПІДПРИЄМСТВО ""АМБУЛАТОРІЯ ЗАГАЛЬНОЇ ПРАКТИКИ-СІМЕЙНОЇ МЕДИЦИНИ ДІВИЧКІВСЬКОЇ СІЛЬСЬКОЇ РАДИ""",43589945,Первинна,Комунальна,divitchky_ambulatoria@ukr.net,+380661162089,Савін Валерій Михайлович,КИЇВСЬКА,ЄРКІВЦІ,"Україна, 08430, Київська обл., Бориспільський р-н, село Єрківці, пров.Зоряний, будинок 1а",50.1204586,31.2659953
0818652b-9897-47f3-b132-1e1320200de2,"ТОВАРИСТВО З ОБМЕЖЕНОЮ ВІДПОВІДАЛЬНІСТЮ ""МЕДИЧНИЙ ЦЕНТР ""ДІАМЕД""",39774774,Первинна,Приватна (без ФОП),diamed.uzhgorod@gmail.com,+380312428080,Смага Ольга Євгеніївна,ЗАКАРПАТСЬКА,УЖГОРОД,"Україна, 88000, Закарпатська обл., місто Ужгород, ВУЛИЦЯ ШВАБСЬКА, будинок 43",48.6158306,22.2947871
082a0736-07c3-421b-a75c-64bbae7e92c1,"КОМУНАЛЬНЕ НЕКОМЕРЦІЙНЕ ПІДПРИЄМСТВО ""ВАЛКІВСЬКИЙ ЦЕНТР ПЕРВИННОЇ МЕДИКО-САНІТАРНОЇ ДОПОМОГИ"" ВАЛКІВСЬКОЇ МІСЬКОЇ РАДИ ХАРКІВСЬКОЇ ОБЛАСТІ",37948306,Первинна,Комунальна,valki_zpmsd@ukr.net,+380575351899,Орлова Марина Ігорівна,ХАРКІВСЬКА,ВАЛКИ,"Україна, 63002, Харківська обл., Богодухівський р-н, місто Валки, пров.Коржівський, будинок 34",49.8375166,35.6280866
084e6987-eeab-4ddd-8a8f-3c1b44fb124d,"КОМУНАЛЬНЕ НЕКОМЕРЦІЙНЕ ПІДПРИЄМСТВО ""КОЛОМИЙСЬКИЙ КЛІНІКО-ДІАГНОСТИЧНИЙ ЦЕНТР"" КОЛОМИЙСЬКОЇ МІСЬКОЇ РАДИ",31509861,Первинна,Комунальна,mfpdkolomya@ukr.net,+380687624971,Гурник Віталій Степанович,ІВАНО-ФРАНКІВСЬКА,КОЛОМИЯ,"Україна, 78203, Івано-Франківська обл., Коломийський р-н, місто Коломия, вул.Замкова, будинок 74б",48.5226637,25.0395015
08581a11-3719-499e-8140-6d2563e44db2,"ДЕРЖАВНА УСТАНОВА ""ГОЛОВНИЙ МЕДИЧНИЙ ЦЕНТР МІНІСТЕРСТВА ВНУТРІШНІХ СПРАВ УКРАЇНИ""",08735882,Спеціалізована,Державна,iavorskyi@i.ua,+380444815601,Яворський Іван Іванович,М.КИЇВ,КИЇВ,"Україна, 04116, місто Київ, ВУЛИЦЯ БЕРДИЧІВСЬКА, будинок 1",50.4589388,30.47961
0864a077-bbd1-49ab-b8a5-75b76cc7b98b,МАКСИМЕНКО ІВАН МИКОЛАЙОВИЧ,ФОП,Первинна,ФОП,maksimenko.lvan.25@gmail.com,+380505456293,Максименко Іван Миколайович,ВІННИЦЬКА,ХМІЛЬНИК,"Україна, 22000, Вінницька обл., місто Хмільник, ВУЛИЦЯ СТЕЛЬМАХА, будинок 13",49.5514389,27.9497251
0867e3ce-bcac-4e44-9418-61217b85d842,"КОМУНАЛЬНЕ НЕКОМЕРЦІЙНЕ ПІДПРИЄМСТВО ""ЦЕНТР ПЕРВИННОЇ МЕДИКО-САНІТАРНОЇ ДОПОМОГИ ПРИШИБСЬКОЇ СІЛЬСЬКОЇ РАДИ""",40586166,Первинна,Комунальна,pmsdprishib2017@gmail.com,+380672896678,Носенко Валентина Олексіївна,ПОЛТАВСЬКА,ПРИШИБ,"Україна, 39750, Полтавська обл., Кременчуцький р-н, село Пришиб, ВУЛИЦЯ ЦЕНТРАЛЬНА , будинок 29",49.0445168,33.7374367
08a20dc0-5e5c-4a97-8deb-c9bbf292ff90,"КОМУНАЛЬНЕ НЕКОМЕРЦІЙНЕ ПІДПРИЄМСТВО ""ЦЕНТР ПЕРВИННОЇ МЕДИКО-САНІТАРНОЇ ДОПОМОГИ САХНОВЩИНСЬКОЇ СЕЛИЩНОЇ РАДИ КРАСНОГРАДСЬКОГО РАЙОНУ  ХАРКІВСЬКОЇ ОБЛАСТІ""",38831532,Первинна,Комунальна,sahncentr@ukr.net,+380576231564,Стогній Наталія Володимирівна,ХАРКІВСЬКА,САХНОВЩИНА,"Україна, 64501, Харківська обл., Красноградський р-н, селище міського типу Сахновщина, вул.Полтавська, будинок 75",49.1519944,35.8771294
0946eee0-1d9b-45ea-8f9b-3b9cd9c0380e,"КОМУНАЛЬНЕ ПІДПРИЄМСТВО ""ЛУБЕНСЬКИЙ ОБЛАСНИЙ ГОСПІТАЛЬ ДЛЯ ВЕТЕРАНІВ ВІЙНИ ПОЛТАВСЬКОЇ ОБЛАСНОЇ РАДИ""",13962367,Спеціалізована,Комунальна,logivv@ukr.net,+380663400251,Падалка Любов Петрівна,ПОЛТАВСЬКА,ЛУБНИ,"Україна, 37500, Полтавська обл., місто Лубни, ВУЛИЦЯ СТАРО-ТРОЇЦЬКА, будинок 19",50.009682,33.0018975
095faa66-1b9f-4aca-b632-f713f9774c9c,"КОМУНАЛЬНЕ НЕКОМЕРЦІЙНЕ ПІДПРИЄМСТВО ""ГНІВАНСЬКИЙ ЦЕНТР ПЕРВИННОЇ МЕДИКО-САНІТАРНОЇ ДОПОМОГИ"" ГНІВАНСЬКОЇ МІСЬКОЇ РАДИ",41877472,Первинна,Комунальна,gnivan_cpmsd@ukr.net,"+380674255804, +380435533649",Сташук Микола Станіславович,ВІННИЦЬКА,ГНІВАНЬ,"Україна, 23310, Вінницька обл., Вінницький р-н, місто Гнівань, вул.Соборна, будинок 89",49.1022648,28.3305946
096c152d-e04b-49e3-9e08-feccbd56cac0,"КОМУНАЛЬНЕ НЕКОМЕРЦІЙНЕ ПІДПРИЄМСТВО ""ДИТЯЧА МІСЬКА ПОЛІКЛІНІКА № 7"" ОДЕСЬКОЇ МІСЬКОЇ РАДИ",01998940,Первинна,Комунальна,dgp7@ukr.net,+380487933564,Соколова Ірина Ігорівна,ОДЕСЬКА,ОДЕСА,"Україна, 65007, Одеська обл., місто Одеса, ВУЛИЦЯ СТАРОПОРТОФРАНКІВСЬКА, будинок 46",46.469017,30.7279134
097ec04d-450c-4cb4-b727-c48be805fa6a,"КОМУНАЛЬНЕ НЕКОМЕРЦІЙНЕ ПІДПРИЄМСТВО ""ЦЕНТР ПЕРВИННОЇ МЕДИКО-САНІТАРНОЇ ДОПОМОГИ ГРУШІВСЬКОЇ СІЛЬСЬКОЇ РАДИ ДНІПРОПЕТРОВСЬКОЇ ОБЛАСТІ""",40676055,Первинна,Комунальна,grushivkacpmsd@gmail.com,"+380968260935, +380565658347",Гвоздик Любов Павлівна,ДНІПРОПЕТРОВСЬКА,ТОКІВСЬКЕ,"Україна, 53853, Дніпропетровська обл., Апостолівський р-н, селище Токівське, ВУЛИЦЯ ВЕРХНЯ , будинок 42",47.6646319,33.9658142
09abc53c-d52c-49ff-adad-3f546d9da7e0,ДЮГОВСЬКИЙ СТАНІСЛАВ ВІТАЛІЙОВИЧ,ФОП,Первинна,ФОП,diuhovskyisv@gmail.com,+380680540451,Дюговський Станіслав Віталійович,КИЇВСЬКА,ВИШНЕВЕ,"Україна, 08132, Київська обл., Бучанський р-н, місто Вишневе, вул.Європейська, будинок 35, квартира 61",0.0,0.0
09d37e62-49b6-470e-a44f-b4cac3021267,"НЕКОМЕРЦІЙНЕ КОМУНАЛЬНЕ ПІДПРИЄМСТВО ""ЮЖНОУКРАЇНСЬКИЙ МІСЬКИЙ ЦЕНТР ПЕРВИННОЇ МЕДИКО-САНІТАРНОЇ ДОПОМОГИ""",42068988,Первинна,Комунальна,ucpmsd@gmail.com,"+380675124242, +380513646437",Мірошник Дмитро Миколайович,МИКОЛАЇВСЬКА,ЮЖНОУКРАЇНСЬК,"Україна, 55001, Миколаївська обл., Вознесенський р-н, місто Южноукраїнськ, вул.Паркова, будинок 3 В",47.8175888,31.1836109
09e0fd96-05ab-41af-9c0c-32d0dd6a4623,"КОМУНАЛЬНЕ НЕКОМЕРЦІЙНЕ ПІДПРИЄМСТВО ""ЦЕНТР ПЕРВИННОЇ МЕДИКО-САНІТАРНОЇ ДОПОМОГИ КРАСНОКУТСЬКОЇ СЕЛИЩНОЇ РАДИ"" БОГОДУХІВСЬКОГО РАЙОНУ ХАРКІВСЬКОЇ ОБЛАСТІ",38289089,Первинна,Комунальна,krkut_cpmsd@ukr.net,+380575632204,Лісняк Валентина Василівна,ХАРКІВСЬКА,КРАСНОКУТСЬК,"Україна, 62002, Харківська обл., Богодухівський р-н, селище міського типу Краснокутськ, пров.Лікарняний, будинок 2",50.0606957,35.1638876
09e2b999-fff1-499e-91ff-a9220b2a1b11,ОБЛАСНЕ КОМУНАЛЬНЕ НЕКОМЕРЦІЙНЕ ПІДПРИЄМСТВО «ЧЕРНІВЕЦЬКИЙ ОБЛАСНИЙ МЕДИЧНИЙ ДІАГНОСТИЧНО-РЕАБІЛІТАЦІЙНИЙ ЦЕНТР»,45002411,Спеціалізована,Комунальна,bucomdc@ukr.net,+380372531096,ГУШИЛИК Борис Іванович,ЧЕРНІВЕЦЬКА,ЧЕРНІВЦІ,"Україна, 58005, Чернівецька обл., Чернівецький р-н, місто Чернівці, вул.Небесної Сотні, будинок 5А",0.0,0.0
09e7649f-500a-46e9-9424-139d505bfad5,ПОРТАШ ЛАРИСА ЮРІЇВНА,ФОП,Первинна,ФОП,larka31@meta.ua,+380673572255,Порташ Лариса Юріївна,ЗАКАРПАТСЬКА,ІРШАВА,"Україна, 90100, Закарпатська обл., Іршавський р-н, місто Іршава, ВУЛИЦЯ МОЛОДІЖНА, будинок 9",48.3104904,23.0284413
0a19b9fd-7e67-472d-8a34-19409002f865,"ТОВАРИСТВО З ОБМЕЖЕНОЮ ВІДПОВІДАЛЬНІСТЮ ""КЛІНІКА СУЧАСНИХ МЕТОДІВ ДІАГНОСТИКИ ТА ІНОВАЦІЙНИХ МЕДИЧНИХ ТЕХНОЛОГІЙ ""ВОДОЛІЙ""",22093580,Первинна,Приватна (без ФОП),direktorvodoliy@gmail.com,+380672524825,Орос Олена Павлівна,ЗАКАРПАТСЬКА,ХУСТ(ПН),"Україна, 90400, Закарпатська обл., місто Хуст(пн), ВУЛИЦЯ СТЕПАНА РОСОХИ, будинок 1",48.1898946,23.3124817
0a28bd5b-bf16-4a7c-bb7d-e3422232648d,ГАНЗІН ОЛЕКСАНДР ІВАНОВИЧ,ФОП,Первинна,ФОП,ganzin1986@gmail.com,+380999647443,Ганзін Олександр Іванович,ЗАПОРІЗЬКА,ЗАПОРІЖЖЯ,"Україна, 69104, Запорізька обл., місто Запоріжжя, вулиця Європейська, будинок 28, корпус Б, квартира 74",47.780614,35.1808423
0a2c2e61-797f-4b96-8eb7-bb351888ff72,"КОМУНАЛЬНЕ НЕКОМЕРЦІЙНЕ ПІДПРИЄМСТВО ""ЧЕЧЕЛЬНИЦЬКИЙ ЦЕНТР ПЕРВИННОЇ МЕДИКО-САНІТАРНОЇ ДОПОМОГИ"" ЧЕЧЕЛЬНИЦЬКОЇ СЕЛИЩНОЇ РАДИ ГАЙСИНСЬКОГО РАЙОНУ ВІННИЦЬКОЇ ОБЛАСТІ",37647637,Первинна,Комунальна,chechelnickijcpmsd@gmail.com,"+380978465390, +380435122603",Павлишен Василь Васильович,ВІННИЦЬКА,ЧЕЧЕЛЬНИК,"Україна, 24800, Вінницька обл., Гайсинський р-н, селище міського типу Чечельник, вул.Антонішина, будинок 60",48.215474,29.3645353
0a5093f3-ac24-4098-8b73-6594e23c1e20,"КОМУНАЛЬНЕ НЕКОМЕРЦІЙНЕ ПІДПРИЄМСТВО ""НОВОУШИЦЬКИЙ ЦЕНТР ПЕРВИННОЇ МЕДИКО-САНІТАРНОЇ ДОПОМОГИ"" НОВОУШИЦЬКОЇ СЕЛИЩНОЇ РАДИ",38072476,Первинна,Комунальна,nucpmsd@meta.ua,+380384730194,Фінагеєва Наталія Миколаївна,ХМЕЛЬНИЦЬКА,НОВА УШИЦЯ,"Україна, 32600, Хмельницька обл., Кам'янець-Подільський р-н, селище міського типу Нова Ушиця, вул.Захисників України, будинок 36",48.8352572,27.2675931
0a66fac4-fc4a-4ce8-b03f-b2bf7936cdb8,"НАЦІОНАЛЬНИЙ  ВІЙСЬКОВО-МЕДИЧНИЙ КЛІНІЧНИЙ ЦЕНТР ""ГОЛОВНИЙ ВІЙСЬКОВИЙ КЛІНІЧНИЙ ГОСПІТАЛЬ""",07773293,Спеціалізована,Державна,lom2030@ukr.net,+380445293829,Колісник Олег Сергійович,М.КИЇВ,КИЇВ,"Україна, 01133, місто Київ, вул.Госпітальна, будинок 18",50.4342395,30.5287304
0b1080e8-9593-4ab2-b059-162958cabdea,"ТОВАРИСТВО З ОБМЕЖЕНОЮ ВІДПОВІДАЛЬНІСТЮ ""РЕАЛЬ КЛІНІК""",42503783,Спеціалізована,Приватна (без ФОП),realhelsi@gmail.com,+380673756808,Пугачов Валерій Анатолійович,ХАРКІВСЬКА,ХАРКІВ,"Україна, 61024, Харківська обл., місто Харків, ВУЛИЦЯ ГУДАНОВА, будинок 5/7",50.0035969,36.2488508
0b222455-7455-4512-a594-7a9a8858f53d,Пойда Світлана Борисівна,ФОП,Первинна,ФОП,svetlana1964poida@gmail.com,+380639649475,Пойда Світлана Борисівна,КІРОВОГРАДСЬКА,ЛИСТОПАДОВЕ,"Україна, 26012, Кіровоградська обл., Новоукраїнський р-н, село Листопадове, вул.Набережна, будинок 7",48.8475249,31.6275547
0b48bc15-66ac-4be7-9fa1-72aa39f91a00,"ТОВАРИСТВО З ОБМЕЖЕНОЮ ВІДПОВІДАЛЬНІСТЮ ""МЕДИЧНИЙ ЦЕНТР ""ЕЙРВІТА""",44589951,Первинна,Приватна (без ФОП),eirvita@ukr.net,+380506100664,Шевченко Ярослав Володимирович,ХАРКІВСЬКА,ХАРКІВ,"Україна, 61033, Харківська обл., місто Харків, вул.Новоолександрівська, будинок 54А, корпус 1, квартира 20",0.0,0.0
0b568f6a-804a-45b2-bee5-26b9df4bdbd5,"ТОВАРИСТВО З ОБМЕЖЕНОЮ ВІДПОВІДАЛЬНІСТЮ ""МЕДІКАВЕР УКРАЇНА""",37639909,Первинна,Приватна (без ФОП),reception@medicover.ua,+380800305911,Яринич Уляна Ігорівна,ЛЬВІВСЬКА,ЛЬВІВ,"Україна, 79057, Львівська обл., місто Львів, вул.Антоновича В., будинок 102",49.8282481,23.9946141
0b597ff2-3105-41f9-95d5-a06f55db1c33,ОБЛАСНЕ КОМУНАЛЬНЕ НЕКОМЕРЦІЙНЕ ПІДПРИЄМСТВО «ЧЕРНІВЕЦЬКИЙ ОБЛАСНИЙ МЕДИЧНИЙ ДІАГНОСТИЧНО-РЕАБІЛІТАЦІЙНИЙ ЦЕНТР»,45002411,Первинна,Комунальна,bucomdc@ukr.net,+380372531096,ГУШИЛИК Борис Іванович,ЧЕРНІВЕЦЬКА,ЧЕРНІВЦІ,"Україна, 58005, Чернівецька обл., Чернівецький р-н, місто Чернівці, вул.Небесної Сотні, будинок 5А",0.0,0.0
0b6b005b-ff50-4d6f-b62c-44db346d3d20,"КОМУНАЛЬНЕ НЕКОМЕРЦІЙНЕ ПІДПРИЄМСТВО ""КОНСУЛЬТАТИВНО-ДІАГНОСТИЧНИЙ ЦЕНТР ДИТЯЧИЙ ДНІПРОВСЬКОГО РАЙОНУ М. КИЄВА""",02125763,Спеціалізована,Комунальна,dneprdp1@ukr.net,+380442942792,Скрипка Сергій Миколайович,М.КИЇВ,КИЇВ,"Україна, 02098, місто Київ, ПРОСПЕКТ П. ТИЧИНИ, будинок 12",50.4270845,30.5978748
0b8efea6-282e-4df0-9123-ff50afbd260c,"КОМУНАЛЬНЕ НЕКОМЕРЦІЙНЕ ПІДПРИЄМСТВО ""ЦЕНТР ПЕРВИННОЇ МЕДИКО-САНІТАРНОЇ ДОПОМОГИ ВЕРХНЯНСЬКОЇ СІЛЬСЬКОЇ РАДИ   КАЛУСЬКОГО РАЙОНУ ІВАНО-ФРАНКІВСЬКОЇ ОБЛАСТІ""",42195683,Первинна,Комунальна,mega-ambulatoria@ukr.net,+380505367527,Маліборська Ірина Василівна,ІВАНО-ФРАНКІВСЬКА,ВЕРХНЯ,"Україна, 77324, Івано-Франківська обл., Калуський р-н, село Верхня, ШЕВЧЕНКА, будинок 52",49.0986392,24.2959901
0b9f0e59-778e-44fc-a691-3cbc3813dd15,ПІГАРЧУК МАРІЯ ГЕОРГІЇВНА,ФОП,Первинна,ФОП,piharchuk.mg@gmail.com,+380966393367,ПІГАРЧУК МАРІЯ ГЕОРГІЇВНА,РІВНЕНСЬКА,РІВНЕ,"Україна, 33013, Рівненська обл., Рівненський р-н, місто Рівне, вул.Міцкевича, будинок 9А, квартира 175",50.603159,26.277561
0ba6f720-4dbf-48ca-9c18-19033db1d096,ПАСЬКО ОЛЬГА ГРИГОРІВНА,ФОП,Первинна,ФОП,paskodirector@gmail.com,+380982051383,Пасько Ольга Григорівна,ХАРКІВСЬКА,ХАРКІВ,"Україна, 61111, Харківська обл., місто Харків, пр.Ювілейний, будинок 77, квартира 47",49.9936588,36.3594541
0be22c76-5938-41dd-84c1-b1ee391c1603,"КОМУНАЛЬНЕ НЕКОМЕРЦІЙНЕ ПІДПРИЄМСТВО ""ЦЕНТР ПЕРВИННОЇ МЕДИКО-САНІТАРНОЇ ДОПОМОГИ"" ПІДГАЄЦЬКОЇ МІСЬКОЇ РАДИ",38503630,Первинна,Комунальна,pidgcpmsd@gmail.com,+380976246264,Виваль Богдан Миколайович,ТЕРНОПІЛЬСЬКА,СТАРЕ МІСТО,"Україна, 48005, Тернопільська обл., Тернопільський р-н, село Старе Місто, вул.Бережанська, будинок 37а",49.268152,25.1307328
0bec777d-2d1d-4339-b8eb-7b78b1e9aad0,Антонова Олена Василівна,ФОП,Первинна,ФОП,elenaantonova977@gmail.com,+380989106737,Антонова Олена Василівна,КІРОВОГРАДСЬКА,БОБРИНЕЦЬ,"Україна, 27200, Кіровоградська обл., Кропивницький р-н, місто Бобринець, вул.Каштанова, будинок 86, квартира 14",48.0581761,32.1610803
0c01aff1-35ba-403a-8faa-97fbc45df8db,"КОМУНАЛЬНЕ НЕКОМЕРЦІЙНЕ ПІДПРИЄМСТВО ""ОБЛАСНИЙ ПЕРИНАТАЛЬНИЙ ЦЕНТР М. КРАМАТОРСЬК""",42170577,Спеціалізована,Комунальна,roddom-kramatorsk@ukr.net,"+380669989764, +380626416399",Кравченко Михайло Вікторович,ДОНЕЦЬКА,КРАМАТОРСЬК,"Україна, 84307, Донецька обл., місто Краматорськ, ВУЛИЦЯ ОЛЕКСИ ТИХОГО, будинок 17-П",48.7223306,37.5644011
0c16b135-8f5e-43dc-87ff-2dccbce25b7c,"КОМУНАЛЬНЕ НЕКОМЕРЦІЙНЕ ПІДПРИЄМСТВО ""ОБЛАСНИЙ КЛІНІЧНИЙ ПРОТИТУБЕРКУЛЬОЗНИЙ ДИСПАНСЕР""",01990766,Спеціалізована,Комунальна,kramtubstar@ukr.net,+380626465267,Клименко Юрій Миколайович,ДОНЕЦЬКА,КРАМАТОРСЬК,"Україна, 84333, Донецька обл., місто Краматорськ, ВУЛИЦЯ КИРИЛКІНА, будинок 10",48.7523762,37.5898933
0c196993-047e-4683-9e06-56dee5e2a0dd,"КОМУНАЛЬНЕ НЕКОМЕРЦІЙНЕ ПІДПРИЄМСТВО ""МІСЬКА КЛІНІЧНА ЛІКАРНЯ № 9"" ДНІПРОВСЬКОЇ МІСЬКОЇ РАДИ",01984613,Спеціалізована,Комунальна,mkl9dnipro@gmail.com,+380567900500,0,ДНІПРОПЕТРОВСЬКА,ДНІПРО,"Україна, 49023, Дніпропетровська обл., місто Дніпро, ПРОСПЕКТ МАНУЙЛІВСЬКИЙ, будинок 29",48.4921705,35.0501123
0c29ed7a-8a5d-424b-8697-1eedb0884b6c,"ТОВАРИСТВО З ОБМЕЖЕНОЮ ВІДПОВІДАЛЬНІСТЮ ""МЕДИЧНИЙ ЦЕНТР ""АДАСТРА ПЛЮС""",42564804,Первинна,Приватна (без ФОП),adastraplus@gmail.com,+380629409403,Турбанова Юлія Олегівна,ДОНЕЦЬКА,МАРІУПОЛЬ,"Україна, 87500, Донецька обл., місто Маріуполь, ВУЛИЦЯ ІТАЛІЙСЬКА, будинок 140-Б",47.093457,37.5352329
0c491c89-a56f-4ddd-b0ff-1be50e9690fe,"КОМУНАЛЬНЕ НЕКОМЕРЦІЙНЕ ПІДПРИЄМСТВО ""ЖИТОМИРСЬКА БАГАТОПРОФІЛЬНА ОПОРНА ЛІКАРНЯ"" НОВОГУЙВИНСЬКОЇ СЕЛИЩНОЇ РАДИ",01991671,Спеціалізована,Комунальна,zt_crl@ukr.net,+380412492738,Юхимчук Тамара Олександрівна,ЖИТОМИРСЬКА,ТРОЯНІВ,"Україна, 12460, Житомирська обл., Житомирський р-н, село Троянів, ВУЛИЦЯ ШУРУПОВА, будинок 8",50.2326428,28.6760924
0c597279-18a6-4575-a653-482e092917f5,РОБЕЙКО ФАЇНА ОЛЕКСАНДРІВНА,ФОП,Первинна,ФОП,robeiov22@ukr.net,+380637891194,Робейко Фаїна Олександрівна,ЧЕРНІГІВСЬКА,ЧЕРНІГІВ,"Україна, 14017, Чернігівська обл., місто Чернігів, вул.Мазепи Івана, будинок 41, квартира 23",51.816286,31.9492501
0c5e99f9-f05a-42bc-807d-21d7ee567ce0,РАДЕЙ ОЛЬГА АНАТОЛІЇВНА,ФОП,Первинна,ФОП,radeyolga@ukr.net,+380969498607,Радей Ольга Анатоліївна,РІВНЕНСЬКА,ДУБНО,"Україна, 35603, Рівненська обл., місто Дубно, ШЕВЧЕНКА, будинок 56",50.3981261,25.7575267
0c64c68a-f5f9-4b70-ae3f-efb80266ae66,"КОМУНАЛЬНЕ НЕКОМЕРЦІЙНЕ ПІДПРИЄМСТВО ""МІСЬКА ПОЛІКЛІНІКА №24"" ХАРКІВСЬКОЇ МІСЬКОЇ РАДИ",02003474,Спеціалізована,Комунальна,khmp24@ukr.net,+380577252700,Бабак Максим Олегович,ХАРКІВСЬКА,ХАРКІВ,"Україна, 61064, Харківська обл., місто Харків, ВУЛИЦЯ ПОЛТАВСЬКИЙ ШЛЯХ, будинок 153",49.982025,36.18217
0ccb692a-1cd7-4a77-b33f-134367412562,"КОМУНАЛЬНЕ НЕКОМЕРЦІЙНЕ ПІДПРИЄМСТВО ""ЦЕНТР ПЕРВИННОЇ МЕДИКО-САНІТАРНОЇ ДОПОМОГИ"" ПРИЛУЦЬКОЇ РАЙОННОЇ РАДИ ЧЕРНІГІВСЬКОЇ ОБЛАСТІ",40314763,Первинна,Комунальна,medcentr_2016@ukr.net,+380463771445,Корсун Віра Миколаївна,ЧЕРНІГІВСЬКА,ПРИЛУКИ,"Україна, 17500, Чернігівська обл., місто Прилуки, ВУЛИЦЯ КИЇВСЬКА, будинок 98",50.5970302,32.365875
0cd49dd5-89d0-4d96-98bc-1fb43e2a71b8,"КОМУНАЛЬНЕ НЕКОМЕРЦІЙНЕ ПІДПРИЄМСТВО ""АМБУЛАТОРІЯ ЗАГАЛЬНОЇ ПРАКТИКИ СІМЕЙНОЇ МЕДИЦИНИ"" ОЛІЇВСЬКОЇ СІЛЬСЬКОЇ РАДИ",42427933,Первинна,Комунальна,medicals_ol@ukr.net,+380979302169,Косигін Максим Ігорович,ЖИТОМИРСЬКА,ОЛІЇВКА,"Україна, 12402, Житомирська обл., Житомирський р-н, село Оліївка, вул.Зоряна, будинок 72 А",50.3818382,28.5126644
0cd81cc9-b690-4f35-a03b-31cdec8fca23,"КОМУНАЛЬНЕ НЕКОМЕРЦІЙНЕ ПІДПРИЄМСТВО ""МІСЬКА ЛІКАРНЯ № 3"" Краматорської міської ради",01990810,Спеціалізована,Комунальна,kmugb3@ukr.net,+380626432435,Яковленко Олексій Вікторович,ДОНЕЦЬКА,КРАМАТОРСЬК,"Україна, 84331, Донецька обл., місто Краматорськ, ВУЛИЦЯ ГЕРОЇВ УКРАЇНИ, будинок 17",48.7425321,37.5961588
0ce7c43e-6afa-4162-a08c-52032122504b,"КОМУНАЛЬНЕ НЕКОМЕРЦІЙНЕ ПІДПРИЄМСТВО ""ЧИГИРИНСЬКИЙ ЦЕНТР ПЕРВИННОЇ МЕДИКО-САНІТАРНОЇ ДОПОМОГИ"" ЧИГИРИНСЬКОЇ МІСЬКОЇ РАДИ",38977296,Первинна,Комунальна,remrostmed@gmail.com,+380473060070,Ременюк Ростислав Петрович,ЧЕРКАСЬКА,ЧИГИРИН,"Україна, 20901, Черкаська обл., Черкаський р-н, місто Чигирин, вул.Замкова, будинок 88",49.0730544,32.6617808
0cea250a-242c-437c-a15f-24ca51dd61df,"КОМУНАЛЬНЕ НЕКОМЕРЦІЙНЕ ПІДПРИЄМСТВО ""МІСЬКА ПОЛІКЛІНІКА № 5"" ЧЕРНІВЕЦЬКОЇ МІСЬКОЇ РАДИ",05481369,Первинна,Комунальна,policlinika-5@ukr.net,+380372585709,Гайдук Наталія Олексіївна,ЧЕРНІВЕЦЬКА,ЧЕРНІВЦІ,"Україна, 58022, Чернівецька обл., місто Чернівці, ВУЛИЦЯ  О. ЩЕРБАНЮКА , будинок 34 А",48.2748101,25.934991
0d123794-c39e-49cb-b1eb-d695bc2c5794,"КОМУНАЛЬНЕ НЕКОМЕРЦІЙНЕ ПІДПРИЄМСТВО МИКОЛАЇВСЬКОЇ МІСЬКОЇ РАДИ ""ЦЕНТР ПЕРВИННОЇ МЕДИКО-САНІТАРНОЇ ДОПОМОГИ №6""",25375178,Первинна,Комунальна,cpmsd6_mykolaiv@ukr.net,+380512460231,Ганусовська Тетяна Михайлівна,МИКОЛАЇВСЬКА,МИКОЛАЇВ,"Україна, 54029, Миколаївська обл., місто Миколаїв, ВУЛИЦЯ ШОСЕЙНА, будинок 58",46.9677079,31.9697752
0d2d8895-1660-499f-8165-6dfc69c1ad3b,СИМУЛИК ОКСАНА ЮРІЇВНА,ФОП,Первинна,ФОП,simulikou@gmail.com,+380978025461,Симулик Оксана Юріївна,ЗАКАРПАТСЬКА,ІЗА,"Україна, 90436, Закарпатська обл., Хустський р-н, село Іза, ВУЛИЦЯ ВУЧКАНА, будинок 29",48.2162668,23.3302946
0d385572-f979-40bc-9bdb-23662b72fec6,"КОМУНАЛЬНЕ НЕКОМЕРЦІЙНЕ ПІДПРИЄМСТВО ""ПОЛІКЛІНІКА ""ГРАВІТОН"" ЧЕРНІВЕЦЬКОЇ МІСЬКОЇ РАДИ",25074063,Спеціалізована,Комунальна,mkmu_prof@ukr.net,+380372261930,0,ЧЕРНІВЕЦЬКА,ЧЕРНІВЦІ,"Україна, 58023, Чернівецька обл., місто Чернівці, вул.Руська, будинок 279",48.27131,25.997746
0d6531c9-c308-4584-a19a-4ac91971ffd3,КОВАЛЬ СЕРГІЙ СЕРГІЙОВИЧ,ФОП,Первинна,ФОП,sergijkoval505@gmail.com,+380686029038,Коваль Сергій Сергійович,КИЇВСЬКА,БІЛА ЦЕРКВА,"Україна, 09114, Київська обл., місто Біла Церква, ВУЛИЦЯ НЕКРАСОВА, будинок 80, квартира 44",49.7943487,30.1480003
0d6a95de-f2fc-475d-b9d9-ae35ab05df4c,ГАВРИЛЮК АНГЕЛІНА СЕРГІЇВНА,ФОП,Первинна,ФОП,gg.aa.ss@ukr.net,+380967744674,Гаврилюк Ангеліна Сергіївна,ВОЛИНСЬКА,ДУБЕЧНЕ,"Україна, 44412, Волинська обл., Ковельський р-н, село Дубечне, вул.Максимука П., будинок 1",51.4386331,24.4383239
0d7a7b8d-e792-4255-b710-4290f444c23d,"КОМУНАЛЬНЕ НЕКОМЕРЦІЙНЕ ПІДПРИЄМСТВО ""ВЕЛИКОМИХАЙЛІВСЬКА БАГАТОПРОФІЛЬНА ЛІКАРНЯ"" ВЕЛИКОМИХАЙЛІВСЬКОЇ СЕЛИЩНОЇ РАДИ ОДЕСЬКОЇ ОБЛАСТІ",01998727,Спеціалізована,Комунальна,v-mih.crb@ukr.net,+380485921286,Венжик Тетяна Володимирівна,ОДЕСЬКА,ВЕЛИКА МИХАЙЛІВКА,"Україна, 67100, Одеська обл., Роздільнянський р-н, селище міського типу Велика Михайлівка, вул.Центральна, будинок 248",47.0958036,29.8448422
0da2b0e7-785c-4bb3-bc12-50a17fdb03cf,"ТОВАРИСТВО З ОБМЕЖЕНОЮ ВІДПОВІДАЛЬНІСТЮ ""КЛІНІКА СІМЕЙНОЇ МЕДИЦИНИ ІЛАЙФ""",45277779,Первинна,Приватна (без ФОП),elifefmc@gmail.com,+380507129181,Паньшева Наталія Валеріївна,ОДЕСЬКА,ОДЕСА,"Україна, 65005, Одеська обл., місто Одеса, вул.Середня, будинок 83 А",0.0,0.0
0dada483-2101-43bb-bfaa-ea6d422bceab,"КОМУНАЛЬНЕ НЕКОМЕРЦІЙНЕ ПІДПРИЄМСТВО ""МІСЬКА ПОЛІКЛІНІКА №2"" ЧЕРНІВЕЦЬКОЇ МІСЬКОЇ РАДИ",30844172,Спеціалізована,Комунальна,health_p2@ukr.net,+380372523301,Широкова Світлана Вікторівна,ЧЕРНІВЕЦЬКА,ЧЕРНІВЦІ,"Україна, 58002, Чернівецька обл., Чернівецький р-н, місто Чернівці, вул.Лесі Українки, будинок 11",48.291003,25.9295767
0db15783-5f60-4a56-b299-bdbc6bed7dd3,"КОМУНАЛЬНЕ НЕКОМЕРЦІЙНЕ ПІДПРИЄМСТВО ""РЕНІЙСЬКИЙ ЦЕНТР ПЕРВИННОЇ МЕДИКО-САНІТАРНОЇ ДОПОМОГИ"" РЕНІЙСЬКОЇ МІСЬКОЇ РАДИ",37565151,Первинна,Комунальна,reni-cpmsd@ukr.net,+380484041000,Георгіу Сергій Федорович,ОДЕСЬКА,РЕНІ(З),"Україна, 68803, Одеська обл., Ренійський р-н, місто Рені(з), вул.Дунайська, будинок 15",45.4569757,28.2702712
0db307a8-dad4-4964-be16-d0095c7671f8,"ТОВАРИСТВО З ОБМЕЖЕНОЮ ВІДПОВІДАЛЬНІСТЮ ""САНІТАС-Д""",41925630,Первинна,Приватна (без ФОП),iqlab001@gmail.com,+380678802511,Мазур Вячеслав Володимирович,ДНІПРОПЕТРОВСЬКА,ДНІПРО,"Україна, 49100, Дніпропетровська обл., місто Дніпро, ПРОСПЕКТ ГЕРОЇВ, будинок 22-А",48.4142175,35.0606818
0db6b772-2e13-4bb1-bfe8-51abf346e16e,ПАУК ОЛЕКСІЙ ПРОКОПОВИЧ,ФОП,Первинна,ФОП,sensuszp@gmail.com,"+380679710881, +380970970203",Паук Олексій Прокопович,ЗАПОРІЗЬКА,ЗАПОРІЖЖЯ,"Україна, 69065, Запорізька обл., місто Запоріжжя, БУЛЬВАР БЕЛЬФОРСЬКИЙ, будинок 5, квартира 48",47.8738557,35.0568576
0dc1c9b5-7f5a-4ff7-a6d3-514d098957b1,"КОМУНАЛЬНЕ НЕКОМЕРЦІЙНЕ ПІДПРИЄМСТВО ""КИЇВСЬКА МІСЬКА КЛІНІЧНА ЛІКАРНЯ №4"" ВИКОНАВЧОГО ОРГАНУ КИЇВСЬКОЇ МІСЬКОЇ РАДИ (КИЇВСЬКОЇ МІСЬКОЇ ДЕРЖАВНОЇ АДМІНІСТРАЦІЇ)",30212155,Спеціалізована,Комунальна,kankmkl@gmail.com,"+380986376747, +380442497846",Мостепан Тетяна Володимирівна,М.КИЇВ,КИЇВ,"Україна, 03110, місто Київ, ВУЛИЦЯ СОЛОМ’ЯНСЬКА, будинок 17",50.424251,30.4823409
0de0c2e0-4463-4c03-b133-f84e3c02bf2e,"КОМУНАЛЬНЕ НЕКОМЕРЦІЙНЕ ПІДПРИЄМСТВО ""ЦЕНТР ПЕРВИННОЇ МЕДИКО-САНІТАРНОЇ ДОПОМОГИ М.ТАВРІЙСЬК"" ТАВРІЙСЬКОЇ МІСЬКОЇ РАДИ ",43923059,Первинна,Комунальна,43923059@mail.gov.ua,+380993363191,Гуменюк Микола Олександрович,ХЕРСОНСЬКА,НОВА КАХОВКА(З),"Україна, 74988, Херсонська обл., місто Нова Каховка(з), місто Таврійськ(з), вул.Каховська, будинок 30",46.7582187,33.4365892
0de8bd52-4bde-4842-8917-6560c752175c,"КОМУНАЛЬНЕ ПІДПРИЄМСТВО ""ЗАБОЛОТТІВСЬКИЙ ЦЕНТР ПЕРВИННОЇ МЕДИЧНОЇ ДОПОМОГИ"" ЗАБОЛОТТІВСЬКОЇ СЕЛИЩНОЇ РАДИ  КОВЕЛЬСЬКОГО РАЙОНУ ВОЛИНСЬКОЇ ОБЛАСТІ",42621851,Первинна,Комунальна,cpmdzab@gmail.com,"+380688751895, +380688751895",КІДАНЕЦЬКА ЛІДІЯ ВОЛОДИМИРІВНА,ВОЛИНСЬКА,ЗАБОЛОТТЯ,"Україна, 44142, Волинська обл., Ковельський р-н, селище міського типу Заболоття, вул.Стадіонна, будинок 38",51.6185468,24.239436
0e33c7f4-6c79-4ee9-8eb7-7933bc4f075b,"Комунальне некомерційне підприємство ""Центр первинної медико-санітарної допомоги"" Яблунівської сільської ради Прилуцького району Чернігівської області",44215884,Первинна,Комунальна,reza-hn@ukr.net,+380960165948,Коновал Тетяна Григорівна,ЧЕРНІГІВСЬКА,ЯБЛУНІВКА,"Україна, 17591, Чернігівська обл., Прилуцький р-н, село Яблунівка, вул.Ярмаркова, будинок 1",50.4622331,32.18933
0e5892e5-9014-4681-b639-b8165fec53fb,"КОМУНАЛЬНЕ НЕКОМЕРЦІЙНЕ ПІДПРИЄМСТВО ""ЦЕНТР ПЕРВИННОЇ МЕДИЧНОЇ ДОПОМОГИ"" ДОЛИНСЬКОЇ МІСЬКОЇ РАДИ ІВАНО-ФРАНКІВСЬКОЇ ОБЛАСТІ",42326482,Первинна,Комунальна,drr.cpmd@ukr.net,+380931264120,Цап Віолета Іванівна,ІВАНО-ФРАНКІВСЬКА,ДОЛИНА,"Україна, 77503, Івано-Франківська обл., Калуський р-н, місто Долина, вул.Бандери Степана, будинок 9",48.9764573,23.9892458
0e61dbed-6132-4aac-a9eb-31effd3e3553,"КОМУНАЛЬНЕ НЕКОМЕРЦІЙНЕ ПІДПРИЄМСТВО ""КРАСНОГРАДСЬКА ЦЕНТРАЛЬНА РАЙОННА ЛІКАРНЯ""",02002701,Спеціалізована,Комунальна,krgrcrl@ukr.net,+380574474032,Васенко Ганна Володимирівна,ХАРКІВСЬКА,КРАСНОГРАД,"Україна, 63304, Харківська обл., Красноградський р-н, місто Красноград, ВУЛИЦЯ ШИНДЛЕРА, будинок 87",49.3739091,35.4425788
0e71b18c-fe98-4d03-9ee0-9cdedd5db8a3,БРАЙЦАРА ТЕТЯНА ОЛЕКСАНДРІВНА,ФОП,Первинна,ФОП,t.braitsara@homedoctor.in.ua,+380977429834,Брайцара Тетяна Олександрівна,ОДЕСЬКА,ОДЕСА,"Україна, 65101, Одеська обл., місто Одеса, проспект Небесної Сотні, будинок 17, квартира 143",46.4004633,30.7230318
0e771a84-952a-42ee-aa87-578ced5143c5,Ясинський Євген Олександрович,ФОП,Первинна,ФОП,alex.yasynskyi@gmail.com,+380980079530,Ясинський Євген Олександрович,ЧЕРНІГІВСЬКА,СОСНИЦЯ,"Україна, 16100, Чернігівська обл., Корюківський р-н, селище міського типу Сосниця, вулиця Козацька, будинок 37",0.0,0.0
0ea4d621-1115-420d-a811-06dac8ad24fc,"КОМУНАЛЬНЕ НЕКОМЕРЦІЙНЕ ПІДПРИЄМСТВО ""СИНЕЛЬНИКІВСЬКИЙ  ЦЕНТР ПЕРВИННОЇ МЕДИКО-САНІТАРНОЇ ДОПОМОГИ СИНЕЛЬНИКІВСЬКОЇ МІСЬКОЇ РАДИ""",01111701,Первинна,Комунальна,01111701@ukr.net,+380992608243,Сачко Олена Ігорівна,ДНІПРОПЕТРОВСЬКА,СИНЕЛЬНИКОВЕ,"Україна, 52500, Дніпропетровська обл., місто Синельникове, ВУЛИЦЯ  ВИКОНКОМІВСЬКА , будинок 32",48.3253537,35.5313006
0ec33e17-3eaa-4adc-aa0f-de350b0a45f1,"ТОВАРИСТВО З ОБМЕЖЕНОЮ ВІДПОВІДАЛЬНІСТЮ ""МЕДЮНІОН""",42794759,Первинна,Приватна (без ФОП),medunion88@gmail.com,+380500530584,Сокрута Юрій Олександрович,ІВАНО-ФРАНКІВСЬКА,КАЛУШ,"Україна, 77301, Івано-Франківська обл., місто Калуш, ВУЛИЦЯ КОБИЛЯКА, будинок 5",49.0414259,24.3950384
0ecdc706-5f91-4bad-8a3b-8194498378f4,"КОМУНАЛЬНЕ НЕКОМЕРЦІЙНЕ ПІДПРИЄМСТВО ""БОЯНСЬКА АМБУЛАТОРІЯ ЗАГАЛЬНОЇ ПРАКТИКИ-СІМЕЙНОЇ МЕДИЦИНИ"" БОЯНСЬКОЇ СІЛЬСЬКОЇ РАДИ ЧЕРНІВЕЦЬКОГО РАЙОНУ ЧЕРНІВЕЦЬКОЇ ОБЛАСТІ",42898430,Первинна,Комунальна,knpazpsmbojan@ukr.net,"+380502496543, +380333757183",Кучурян Минодора Мірчівна,ЧЕРНІВЕЦЬКА,БОЯНИ,"Україна, 60321, Чернівецька обл., Чернівецький р-н, село Бояни, вул.Мороза І., будинок 8",48.269924,26.1261538
0f04debf-d95a-40a6-b100-723e622e960e,"ТОВАРИСТВО З ОБМЕЖЕНОЮ ВІДПОВІДАЛЬНІСТЮ ""МЕДИЧНИЙ СЕРВІС""",43923200,Первинна,Приватна (без ФОП),as@medservices.com.ua,+380673741110,Самотій Андрій Степанович,ЛЬВІВСЬКА,ЛЬВІВ,"Україна, 79008, Львівська обл., місто Львів, вул.Валова, будинок 18 а",49.5114153,23.2005018
0f3290da-096e-4986-8314-f098bd5d68ba,"КОМУНАЛЬНЕ НЕКОМЕРЦІЙНЕ ПІДПРИЄМСТВО ""ЦЕНТР ПЕРВИННОЇ МЕДИКО-САНІТАРНОЇ ДОПОМОГИ ПЕЧЕНІЗЬКОЇ СЕЛИЩНОЇ РАДИ""",02002397,Первинна,Комунальна,pechenegi_centr@ukr.net,+380576561103,Жадан Олександр Миколайович,ХАРКІВСЬКА,ПЕЧЕНІГИ,"Україна, 62801, Харківська обл., Печенізький р-н, селище міського типу Печеніги, ВУЛИЦЯ НЕЗАЛЕЖНОСТІ, будинок 59",49.8662512,36.9409003
0f349316-cad2-430b-a949-b763b5aee897,"ДЕРЖАВНА УСТАНОВА ""ТЕРИТОРІАЛЬНЕ МЕДИЧНЕ ОБ'ЄДНАННЯ МІНІСТЕРСТВА ВНУТРІШНІХ СПРАВ УКРАЇНИ ПО ПОЛТАВСЬКІЙ ОБЛАСТІ""",08733966,Спеціалізована,Державна,smz@pl.npu.gov.ua,+380532676446,Глушко Олександр Олександрович,ПОЛТАВСЬКА,ПОЛТАВА,"Україна, 36038, Полтавська обл., місто Полтава, ВУЛИЦЯ СИМОНА ПЕТЛЮРИ, будинок 64",49.5837268,34.5207534
0f46312f-2dcc-49fc-9397-b742faf803a3,МОСКАЛЕНКО МИКОЛА ГРИГОРОВИЧ,ФОП,Первинна,ФОП,moskalenkofop@gmail.com,+380976142273,Москаленко Микола Григорович,ДНІПРОПЕТРОВСЬКА,КРИВИЙ РІГ,"Україна, 50046, Дніпропетровська обл., місто Кривий Ріг, мікрорайон Всебратське - 2, будинок 55, квартира 93",47.9006336,33.2946486
0f4a9c55-ca0c-404f-9de4-165c3628b77a,"ТОВАРИСТВО З ОБМЕЖЕНОЮ ВІДПОВІДАЛЬНІСТЮ ""МЕДИЧНИЙ ЦЕНТР АП""",42138054,Первинна,Приватна (без ФОП),galyna.slavych@gmail.com,"+380676533153, +380322880328",Славич Галина Петрівна,ЛЬВІВСЬКА,ЛЬВІВ,"Україна, 79495, Львівська обл., місто Львів, місто Винники, ВУЛИЦЯ СУХОМЛИНСЬКОГО, будинок 8, квартира 2",49.8192752,24.1432232
0f6c5d6f-fca0-4a7a-9918-171d25cf9ad3,КОЗЯР ОЛЬГА ВІТАЛІЇВНА,ФОП,Первинна,ФОП,koziarolga82@gmail.com,+380685390883,Козяр Ольга Віталіївна,ХМЕЛЬНИЦЬКА,ГОРОДОК,"Україна, 32000, Хмельницька обл., Городоцький р-н, місто Городок, ВУЛИЦЯ РОДИННА, будинок 2",49.1664842,26.5767453
0f74d7c7-b4a6-4045-bdad-ec65d74c44b9,СТОЛОВА АЛЛА ОЛЕКСАНДРІВНА,ФОП,Первинна,ФОП,allastolova@gmail.com,+380957667740,Столова Алла Олександрівна,ХАРКІВСЬКА,КОЗІЇВКА,"Україна, 62011, Харківська обл., Богодухівський р-н, село Козіївка, вул.Слобожанська, будинок 40Б, квартира 6",50.1473806,35.2164855
0f7ef9a3-5052-41ed-995d-cffc559537ba,СОЛОНЬКО ТЕТЯНА ОЛЕКСІЇВНА,ФОП,Первинна,ФОП,tanyasol45836@gmail.com,+380972591190,Солонько Тетяна Олексіївна,КІРОВОГРАДСЬКА,ОЛЕКСАНДРІЯ,"Україна, 28006, Кіровоградська обл., місто Олександрія, ВУЛИЦЯ КИЇВСЬКА, будинок 156",48.6726849,33.0620337
0f8346d0-46a4-4b00-9a97-95c408d6ae3e,"КОМУНАЛЬНЕ НЕКОМЕРЦІЙНЕ ПІДПРИЄМСТВО ""ЦЕНТР ПЕРВИННОЇ МЕДИКО-САНІТАРНОЇ ДОПОМОГИ ""ЮВІЛЕЙНИЙ"" РІВНЕНСЬКОЇ МІСЬКОЇ РАДИ",03068582,Спеціалізована,Комунальна,med_centr_yv@ukr.net,+380362641654,Покоєвчук Вікторія Михайлівна,РІВНЕНСЬКА,РІВНЕ,"Україна, 33024, Рівненська обл., Рівненський р-н, місто Рівне, вул.Кулика і Гудачека, будинок 3",50.6199,26.251617
0f90d1c4-6120-47f6-ac36-31b74e388242,"ТОВАРИСТВО З ОБМЕЖЕНОЮ ВІДПОВІДАЛЬНІСТЮ ""ПЕРША ПРИВАТНА ПОЛІКЛІНІКА ФІЛІЯ ДНІПРО-11""",45050664,Первинна,Приватна (без ФОП),pppdnipro1@ukr.net,+380500671388,Сафонов Денис Олегович,ДНІПРОПЕТРОВСЬКА,ДНІПРО,"Україна, 49000, Дніпропетровська обл., місто Дніпро, вул.Галицького Данила, будинок 34",0.0,0.0
0fbe1708-e0cf-418b-a8c1-24a54d99e780,Дзьоба Юлія Андріївна,ФОП,Первинна,ФОП,doc.julia.ua@gmail.com,+380989285732,Дзьоба Юлія Андріївна,ХМЕЛЬНИЦЬКА,ХМЕЛЬНИЦЬКИЙ(З),"Україна, 29000, Хмельницька обл., місто Хмельницький(з), вул.Лікарняна, будинок 1, квартира 17",49.4507413,27.0149393
10267852-0c05-4285-8299-515f3f9d7ce1,"ТОВАРИСТВО З ОБМЕЖЕНОЮ ВІДПОВІДАЛЬНІСТЮ ""КОД ЗДОРОВ'Я""",37793580,Первинна,Приватна (без ФОП),kodzdofis@gmail.com,+380667164973,Ярошенко Олександр Олександрович,М.КИЇВ,КИЇВ,"Україна, 02081, місто Київ, Дніпровська набережна, будинок 25-Б, нежилі приміщення з № 1 по № 13 (групи приміщень № 12) (в літері А)",47.1375371,37.6025432
103b4db0-7ba6-4b1a-8c0e-8a1d8d720d25,"КОМУНАЛЬНЕ НЕКОМЕРЦІЙНЕ ПІДПРИЄМСТВО ""ПІДГАЙЦІВСЬКИЙ ЦЕНТР ПЕРВИННОЇ МЕДИКО-САНІТАРНОЇ ДОПОМОГИ ПІДГАЙЦІВСЬКОЇ СІЛЬСЬКОЇ РАДИ""",43002954,Первинна,Комунальна,pidgayci.knp@ukr.net,"+380997242576, +380332704672",Гунько Ольга Ростиславівна,ВОЛИНСЬКА,ПІДГАЙЦІ,"Україна, 45602, Волинська обл., Луцький р-н, село Підгайці, ВУЛИЦЯ ШКІЛЬНА, будинок 24А",50.710411,25.4042557
1051e58b-999d-4a5b-baa3-73f5682b461c,"КОМУНАЛЬНЕ НЕКОМЕРЦІЙНЕ ПІДПРИЄМСТВО ""РАДИВИЛІВСЬКА ЦЕНТРАЛЬНА МІСЬКА ЛІКАРНЯ"" РАДИВИЛІВСЬКОЇ МІСЬКОЇ РАДИ РІВНЕНСЬКОЇ ОБЛАСТІ",02000263,Первинна,Комунальна,radyvyliv.rl3@gmail.com,+380974943635,Стецюк Федір Григорович,РІВНЕНСЬКА,РАДИВИЛІВ,"Україна, 35500, Рівненська обл., Дубенський р-н, місто Радивилів, вул.Садова, будинок 4",50.1239552,25.2527513
106a4971-2aa5-4c18-9cef-9bd732cab501,"ТОВАРИСТВО З ОБМЕЖЕНОЮ ВІДПОВІДАЛЬНІСТЮ ""КЛІНІКА ПРЕСТИЖ""",43950412,Первинна,Приватна (без ФОП),clinicprestige.vas@gmail.com,+380676348067,Работенко Світлана Анатоліївна,ЗАПОРІЗЬКА,ВАСИЛІВКА,"Україна, 71601, Запорізька обл., Василівський р-н, місто Василівка, вул.Соборна, будинок 5-Б",47.4457503,35.2847026
109b9d82-74bb-40c1-837e-158a27c889fa,БАЧУРІН ПАВЛО ГЕОРГІЙОВИЧ,ФОП,Первинна,ФОП,integromedcentr@gmail.com,+380630300103,Бачурін Павло Георгійович,ЧЕРКАСЬКА,ЧЕРКАСИ,"Україна, 18016, Черкаська обл., місто Черкаси, ВУЛИЦЯ КОЗАЦЬКА, будинок 9, квартира 64",49.4389153,32.098278
10ad6605-050e-4c5b-9847-d987e1d1743b,"КОМУНАЛЬНЕ НЕКОМЕРЦІЙНЕ ПІДПРИЄМСТВО ""ЦЕНТР ПЕРВИННОЇ МЕДИКО-САНІТАРНОЇ ДОПОМОГИ"" ЖОВТОВОДСЬКОЇ МІСЬКОЇ РАДИ",41906974,Первинна,Комунальна,cpmsd_zv@ukr.net,+380958716325,Проняєв Юліан Миколайович,ДНІПРОПЕТРОВСЬКА,ЖОВТІ ВОДИ,"Україна, 52204, Дніпропетровська обл., Кам'янський р-н, місто Жовті Води, вул.Героїв Чорнобиля, будинок 16-Е",48.3416604,33.4945787
10f57a9c-da92-4eed-85d9-16d2a99e5219,"КОМУНАЛЬНЕ НЕКОМЕРЦІЙНЕ ПІДПРИЄМСТВО ""МІСЬКА ДИТЯЧА ПОЛІКЛІНІКА № 1"" ХАРКІВСЬКОЇ МІСЬКОЇ РАДИ",22645921,Спеціалізована,Комунальна,mdp1@ukr.net,+380572521122,Кіпаренко Олександр Юрійович,ХАРКІВСЬКА,ХАРКІВ,"Україна, 61105, Харківська обл., місто Харків, проспект Байрона, 12",49.9438739,36.27398
10f581aa-3d1b-409a-a4e1-8c5223744f23,"КОМУНАЛЬНЕ ПІДПРИЄМСТВО ""КРЕМЕНЧУЦЬКИЙ ОБЛАСНИЙ КЛІНІЧНИЙ ШПИТАЛЬ ДЛЯ ВЕТЕРАНІВ ВІЙНИ"" ПОЛТАВСЬКОЇ ОБЛАСНОЇ РАДИ",04543507,Первинна,Комунальна,info@kremenchuk-oh.pl.ua,+380961831850,Литвиненко Микола Миколайович,ПОЛТАВСЬКА,КРЕМЕНЧУК,"Україна, 39600, Полтавська обл., місто Кременчук, ВУЛИЦЯ ІГОРЯ СЕРДЮКА, будинок 23/1",49.0663358,33.4092196
11026883-46fe-4d0f-bd95-112b10dc7ba9,РУДКОВСЬКИЙ БОГДАН ВЛАДИСЛАВОВИЧ,ФОП,Первинна,ФОП,nezkrayu@gmail.com,+380992764663,Рудковський Богдан Владиславович,ІВАНО-ФРАНКІВСЬКА,ІВАНО-ФРАНКІВСЬК,"Україна, 76018, Івано-Франківська обл., Івано-Франківський р-н, місто Івано-Франківськ, вул.Декабристів Українських, будинок 47Г",47.0964354,37.545545
115dc286-1f1e-4a4a-aede-a7019fc63167,"КОМУНАЛЬНЕ НЕКОМЕРЦІЙНЕ ПІДПРИЄМСТВО ""ЛІКАРСЬКА АМБУЛАТОРІЯ ЗАГАЛЬНОЇ ПРАКТИКИ - СІМЕЙНОЇ МЕДИЦИНИ С.ПІДЛОЗЦІ"" ПІДЛОЗЦІВСЬКОЇ СІЛЬСЬКОЇ РАДИ РІВНЕНСЬКОЇ ОБЛАСТІ",42027517,Первинна,Комунальна,pmsdpidlozci@ukr.net,+380687466003,Колядич Марія Тимофіївна,РІВНЕНСЬКА,ПІДЛОЗЦІ,"Україна, 35132, Рівненська обл., Дубенський р-н, село Підлозці, вул.Стирова, будинок 1",50.5837559,25.3660472
1171b4f3-d14b-47dd-9574-9d6584cae869,"КОМУНАЛЬНЕ НЕКОМЕРЦІЙНЕ ПІДПРИЄМСТВО ""ВЕЛИКОБИЧКІВСЬКИЙ ЦЕНТР ПЕРВИННОЇ МЕДИКО-САНІТАРНОЇ ДОПОМОГИ"" ВЕЛИКОБИЧКІВСЬКОЇ СЕЛИЩНОЇ РАДИ ЗАКАРПАТСЬКОЇ ОБЛАСТІ",44177404,Первинна,Комунальна,cpmsdvel.buchkiv@gmail.com,+380679592303,Княгницька Ірина Миколаївна,ЗАКАРПАТСЬКА,ЛУГ,"Україна, 90616, Закарпатська обл., Рахівський р-н, село Луг, будинок 107",47.9589143,24.0587543
1183c460-d431-41dc-bb56-8d4cd622fc54,НІКОЛОВА ОЛЕНА АНАТОЛІЇВНА,ФОП,Первинна,ФОП,dr.nikolova.let@gmail.com,+380961275195,Ніколова Олена Анатоліївна,ВІННИЦЬКА,ЛІТИН,"Україна, 22300, Вінницька обл., Вінницький р-н, селище міського типу Літин, вул.Суворова, будинок 8",49.3830288,27.6306274
11a8cafa-48a8-4160-9020-45771acdaca6,ДИЧКА ВІКТОР ВАСИЛЬОВИЧ,ФОП,Первинна,ФОП,dichka_fop@ukr.net,+380662537686,Дичка Віктор Васильович,ЗАКАРПАТСЬКА,МУКАЧЕВО,"Україна, 89600, Закарпатська обл., місто Мукачево, ВУЛИЦЯ ОЛЕГА КОШОВОГО, будинок 5",48.4309583,22.7190485
11b67226-1e9c-49d5-98bc-19a232c4c3ec,"ТОВАРИСТВО З ОБМЕЖЕНОЮ ВІДПОВІДАЛЬНІСТЮ ""МЕДИКАЛ ПЛЮС""",43778764,Спеціалізована,Приватна (без ФОП),medical.plus.lutsk@gmail.com,+380669671063,Ващенюк Ігор Степанович,ВОЛИНСЬКА,ЛУЦЬК(З),"Україна, 43024, Волинська обл., місто Луцьк(з), пр.Молоді, будинок 12",50.7637146,25.3698272
11c93b02-72c6-41c0-9380-ba715b80bc25,"Комунальне некомерційне підприємство ""Центр первинної медико-санітарної допомоги"" Стрілківської сільської ради Самбірського району Львівської області",44646459,Первинна,Комунальна,cpmsdstrilky@gmail.com,+380977025447,Перуцька Яна Миколаївна,ЛЬВІВСЬКА,СТРІЛКИ,"Україна, 82092, Львівська обл., Самбірський р-н, село Стрілки, вул.Шевченка, будинок 8а",49.3378259,22.9891555
11e603b8-a52a-4370-affc-e27ba02f0274,"КОМУНАЛЬНЕ НЕКОМЕРЦІЙНЕ ПІДПРИЄМСТВО ""ЦЕНТР ПЕРВИННОЇ МЕДИКО-САНІТАРНОЇ ДОПОМОГИ"" ВОРОНОВИЦЬКОЇ СЕЛИЩНОЇ РАДИ",43913323,Первинна,Комунальна,43913323v@gmail.com,"+380735535303, +380432587481",Петлінська Юлія Сергіївна,ВІННИЦЬКА,ВОРОНОВИЦЯ,"Україна, 23252, Вінницька обл., Вінницький р-н, селище міського типу Вороновиця, вул.Гагаріна, будинок 20",49.107592,28.6694482
124b6df0-665a-4694-a325-ccacb378b7f6,МЕЛЬНИЧУК ХРИСТИНА СЕРГІЇВНА,ФОП,Первинна,ФОП,medicalpractic@gmail.com,+380985767265,Мельничук Христина Сергіївна,ІВАНО-ФРАНКІВСЬКА,КОЛОМИЯ(З),"Україна, 78203, Івано-Франківська обл., місто Коломия(з), вул.Міцкевича Адама, будинок 30",48.5683701,25.0636758
12710d68-98d6-4cf8-9bed-ad121823537d,"ТОВАРИСТВО З ОБМЕЖЕНОЮ ВІДПОВІДАЛЬНІСТЮ ""ОЩАД КЛІНІКА""",44848931,Первинна,Приватна (без ФОП),oshchad.clinic@gmail.com,+380681600302,Ярмак Микола Миколайович,ЛЬВІВСЬКА,ЛЬВІВ,"Україна, 79020, Львівська обл., місто Львів, вул. Малоголосківська, будинок 32, квартира 1а",49.839683,24.029717
12745abc-f2ec-48b3-af6b-c3c78068b122,ЛАГУТА ВАЛЕНТИНА ВОЛОДИМИРІВНА,ФОП,Первинна,ФОП,vvelllag@gmail.com,+380981668811,Лагута Валентина Володимирівна,ПОЛТАВСЬКА,ПОЛТАВА,"Україна, 36004, Полтавська обл., місто Полтава, ВУЛИЦЯ ГОЛОВКА, будинок 17, квартира 23",49.572143,34.5819026
1277e641-20b4-4040-a27e-7695fac85d53,"КОМУНАЛЬНЕ НЕКОМЕРЦІЙНЕ ПІДПРИЄМСТВО ""ПЕРЕЯСЛАВСЬКИЙ ЦЕНТР ПЕРВИННОЇ МЕДИКО-САНІТАРНОЇ ДОПОМОГИ"" ПЕРЕЯСЛАВСЬКОЇ МІСЬКОЇ РАДИ ТА ЦИБЛІВСЬКОЇ СІЛЬСЬКОЇ РАДИ",38424617,Первинна,Комунальна,phcenter@ukr.net,+380456752506,Царенок Наталія Петрівна,КИЇВСЬКА,ПЕРЕЯСЛАВ,"Україна, 08403, Київська обл., місто Переяслав, ВУЛИЦЯ БОГДАНА ХМЕЛЬНИЦЬКОГО, будинок 137",50.0715832,31.4501543
127c5bf1-6352-4ee1-b68c-f3f989a2d56f,"КОМУНАЛЬНЕ НЕКОМЕРЦІЙНЕ ПІДПРИЄМСТВО ""ЯБЛУНИЦЬКА АМБУЛАТОРІЯ ЗАГАЛЬНОЇ ПРАКТИКИ СІМЕЙНОЇ МЕДИЦИНИ"" БІЛОБЕРІЗЬКОЇ СІЛЬСЬКОЇ РАДИ",42417490,Первинна,Комунальна,azpsm.yabl@gmail.com,+380963044633,Григорчук Станіслав Іванович,ІВАНО-ФРАНКІВСЬКА,ЯБЛУНИЦЯ,"Україна, 78731, Івано-Франківська обл., Верховинський р-н, село Яблуниця, присілок Рівне, будинок 59",48.0092656,24.9164146
128324f7-d731-4b93-b935-a4cdbc7cfd00,"Комунальне некомерційне підприємство ""Центр первинної медико-санітарної допомоги Гатненської сільської ради""",43935001,Первинна,Комунальна,gatnecpmsd@ukr.net,+380667631448,Давиденко Наталія Миколаївна,КИЇВСЬКА,ВІТА-ПОШТОВА,"Україна, 08170, Київська обл., Фастівський р-н, село Віта-Поштова, вул.Боярська, будинок 4",50.3146151,30.3756894
12b31b70-e17b-456a-bbe5-7e6102e3daf2,РАКУЛ ОЛЕНА ОЛЕКСАНДРІВНА,ФОП,Первинна,ФОП,e.rakul@homedoctor.in.ua,+380968947808,Ракул Олена Олександрівна,ОДЕСЬКА,ОДЕСА,"Україна, 65123, Одеська обл., місто Одеса, ВУЛИЦЯ АКАДЕМІКА ЗАБОЛОТНОГО, будинок 54/2, квартира 13",46.5767327,30.7996261
12d23a09-ec11-4181-b86f-33bdcc015d1a,Канюга Святослав Михайлович,ФОП,Первинна,ФОП,kanyugasvyat@gmail.com,+380978667285,Канюга Святослав Михайлович,ІВАНО-ФРАНКІВСЬКА,ІВАНО-ФРАНКІВСЬК(З),"Україна, 76000, Івано-Франківська обл., місто Івано-Франківськ(з), вул.Коновальця Євгена, будинок 123, квартира 12",49.1229415,24.7262079
12dca9ae-4446-49c7-951c-472a642a67eb,БІЛОШИЦЬКИЙ ОЛЕКСАНДР МИХАЙЛОВИЧ,ФОП,Первинна,ФОП,biloshitskiy.fop@gmail.com,+380666700161,Білошицький Олександр МИХАЙЛОВИЧ,ОДЕСЬКА,БАЛТА(ПН),"Україна, 66101, Одеська обл., місто Балта(пн), ВУЛИЦЯ ЛЮБОМИРСЬКА , будинок 54",47.9370871,29.6288401
131ddc4c-0bff-438e-ad0c-e500d3758cf0,ЯБЛОНОВСЬКА СОФІЯ ВОЛОДИМИРІВНА,ФОП,Первинна,ФОП,s.yablonovska@homedoctor.com.ua,+380952234200,ЯБЛОНОВСЬКА СОФІЯ ВОЛОДИМИРІВНА,ОДЕСЬКА,ОДЕСА,"Україна, 65031, Одеська обл., місто Одеса, вул.Ядова Сергія, будинок 4а",46.47642,30.7403992
131ec909-f2f1-45ba-a4bb-8ddc0f0a3aae,СЕРЕДЮК ОЛЬГА ІВАНІВНА,ФОП,Первинна,ФОП,olha.seredyuk@gmail.com,+380502899634,Середюк Ольга Іванівна,ЛЬВІВСЬКА,ЛЬВІВ,"Україна, 79059, Львівська обл., місто Львів, ВУЛИЦЯ ДЖ. ЛЕНОНА, будинок 35, квартира 16",49.8822626,24.0377331
13313e88-8fe8-4136-a06c-fd4471d65b16,СОТНИЧУК ЮРІЙ МИРОСЛАВОВИЧ,ФОП,Первинна,ФОП,dsotnychuk@gmail.com,+380505855505,Сотничук Юрій Мирославович,ЗАКАРПАТСЬКА,ВІЛЬХІВКА,"Україна, 90141, Закарпатська обл., Іршавський р-н, село Вільхівка, ВУЛИЦЯ ЦЕНТРАЛЬНА, будинок 9",48.266029,23.0657353
13354636-fa05-47cc-845a-58105b947c1c,"КОМУНАЛЬНЕ НЕКОМЕРЦІЙНЕ ПІДПРИЄМСТВО ""ДИТЯЧА КЛІНІЧНА ЛІКАРНЯ № 3 СОЛОМ’ЯНСЬКОГО РАЙОНУ МІСТА КИЄВА"" ВИКОНАВЧОГО ОРГАНУ КИЇВСЬКОЇ МІСЬКОЇ РАДИ (КИЇВСЬКОЇ МІСЬКОЇ ДЕРЖАВНОЇ АДМІНІСТРАЦІЇ)",01993747,Спеціалізована,Комунальна,solomdkl3@ukr.net,+380442422291,Коротич Тетяна Іванівна,М.КИЇВ,КИЇВ,"Україна, 03151, місто Київ, ВУЛИЦЯ ВОЛИНСЬКА, будинок 21",50.4263872,30.4493753
135709a8-5b48-4ed6-b75b-390beb15b0d5,"КОМУНАЛЬНЕ НЕКОМЕРЦІЙНЕ ПІДПРИЄМСТВО КЕГИЧІВСЬКОЇ СЕЛИЩНОЇ РАДИ ""ЦЕНТР ПЕРВИННОЇ МЕДИКО-САНІТАРНОЇ ДОПОМОГИ""",38008760,Первинна,Комунальна,kegi_cpmsd@ukr.net,+380575531877,Степаненко Роман Михайлович,ХАРКІВСЬКА,КЕГИЧІВКА,"Україна, 64003, Харківська обл., Красноградський р-н, селище міського типу Кегичівка, вул.Калинова, будинок 37",49.2908673,35.7511764
13677b31-dcbe-45f1-8f12-502cf750afa4,"КОМУНАЛЬНЕ НЕКОМЕРЦІЙНЕ ПІДПРИЄМСТВО ""СЕРЕДИНО-БУДСЬКА АМБУЛАТОРІЯ ЗАГАЛЬНОЇ ПРАКТИКИ СІМЕЙНОЇ МЕДИЦИНИ"" СЕРЕДИНО-БУДСЬКОЇ МІСЬКОЇ РАДИ",42124853,Первинна,Комунальна,sbuda_azpsm@i.ua,+380545171435,Муляр Вікторія В'ячеславівна,СУМСЬКА,СЕРЕДИНА-БУДА,"Україна, 41000, Сумська обл., Середино-Будський р-н, місто Середина-Буда, ВУЛИЦЯ ВОКЗАЛЬНА, будинок 29",52.1857663,34.0268377
13943ccb-9ea5-459f-b4ec-5dcd83b4d104,"ТОВАРИСТВО З ОБМЕЖЕНОЮ ВІДПОВІДАЛЬНІСТЮ ""МЕДИЧНИЙ ЦЕНТР ""ВАН МЕДИКАЛ""",43941785,Первинна,Приватна (без ФОП),dila492vmd@ukr.net,+380966907069,Степаненко Антоніна Анатоліївна,КИЇВСЬКА,КРЮКІВЩИНА,"Україна, 08121, Київська обл., Бучанський р-н, село Крюківщина, вул.Щастя, будинок 1, офіс 403",50.366903,30.3697806
13ab7e1d-ebcd-4f12-a934-09af8e2d726d,БОРДОВСЬКА ІРИНА ГРИГОРІВНА,ФОП,Первинна,ФОП,clinic.bordovska@ukr.net,+386082626622,Бордовська Ірина Григорівна,М.КИЇВ,КИЇВ,"Україна, 03148, місто Київ, вул.Тулузи, будинок 3, квартира 107",50.3967138,30.3860765
13bea6e1-489e-4157-9784-47c438367cd0,"КОМУНАЛЬНЕ НЕКОМЕРЦІЙНЕ ПІДПРИЄМСТВО МИКОЛАЇВСЬКОЇ МІСЬКОЇ РАДИ ""ЦЕНТР ПЕРВИННОЇ МЕДИКО-САНІТАРНОЇ ДОПОМОГИ №3""",30083840,Первинна,Комунальна,tspmsd3@ukr.net,+380512478277,Заміхановська Вікторія Василівна,МИКОЛАЇВСЬКА,МИКОЛАЇВ,"Україна, 54020, Миколаївська обл., місто Миколаїв, ВУЛИЦЯ ШОСЕЙНА, будинок 128",46.9589813,31.9751255
13c66d84-a4b5-4042-899a-61c5a80cceb7,"ТОВАРИСТВО З ОБМЕЖЕНОЮ ВІДПОВІДАЛЬНІСТЮ ""ЦЕНТР СІМЕЙНОЇ МЕДИЦИНИ ""ДАНКО""",44367740,Первинна,Приватна (без ФОП),medic.danco@gmail.com,+380979831595,Абрамчук Світлана Деомидівна,ЧЕРНІВЕЦЬКА,МИГОВЕ,"Україна, 59236, Чернівецька обл., Вижницький р-н, село Мигове, вул.Центральна, будинок 129-А",48.1509479,25.379971
13c6d118-e8cb-4179-9446-47eb63682729,"КОМУНАЛЬНЕ НЕКОМЕРЦІЙНЕ ПІДПРИЄМСТВО ""ЦЕНТР ПЕРВИННОЇ МЕДИКО-САНІТАРНОЇ ДОПОМОГИ"" ЛУКА-МЕЛЕШКІВСЬКОЇ СІЛЬСЬКОЇ РАДИ",42563046,Первинна,Комунальна,seremetaurij0@gmail.com,"+380673686089, +380673686089",Шеремета Юрій Петрович,ВІННИЦЬКА,ЛУКА-МЕЛЕШКІВСЬКА,"Україна, 23234, Вінницька обл., Вінницький р-н, село Лука-Мелешківська, ВУЛИЦЯ ТИВРІВСЬКЕ ШОСЕ, будинок 18",49.1740955,28.5033145
13ced715-6f4e-4269-930a-ab82029d2b8b,ІВАНІЯ ОКСАНА РОМАНІВНА,ФОП,Первинна,ФОП,ivania.azpsm4@gmail.com,+380937280909,Іванія Оксана Романівна,ХМЕЛЬНИЦЬКА,ХМЕЛЬНИЦЬКИЙ(З),"Україна, 29000, Хмельницька обл., місто Хмельницький(з), вул.Прикордонників, будинок 4",49.4507124,27.0157378
13ed3084-4d18-4191-8674-3a28497d9318,"ТОВАРИСТВО З ОБМЕЖЕНОЮ ВІДПОВІДАЛЬНІСТЮ ""НАУКОВО-МЕДИЧНИЙ ЦЕНТР ПРОФПАТОЛОГІЇ""",44109067,Спеціалізована,Приватна (без ФОП),dmitrovaolga87@gmail.com,+380800333133,Петерчук Ігор Фадейович,ВІННИЦЬКА,ВІННИЦЯ,"Україна, 21018, Вінницька обл., Вінницький р-н, місто Вінниця, вул.Пирогова, будинок 2",49.439956,26.9479893
14174b86-5fb5-40e8-8abf-40ad86337417,"Комунальне некомерційне підприємство ""Кам'янський центр первинної медико-санітарної допомоги"" Кам'янської селищної ради",38626445,Первинна,Комунальна,olya89@i.ua,+380614721604,Деркач Наталя Анатоліївна,ЗАПОРІЗЬКА,КАМ'ЯНКА,"Україна, 71001, Запорізька обл., Пологівський р-н, селище міського типу Кам'янка, вул.Євтушенко, будинок 1А",48.019978,35.9609182
141f57fa-5ad5-4a8e-b5d7-21563273e9ff,"КОМУНАЛЬНЕ НЕКОМЕРЦІЙНЕ ПІДПРИЄМСТВО УКРАЇНСЬКОЇ МІСЬКОЇ РАДИ ""ЦЕНТР ПЕРВИННОЇ МЕДИКО-САНІТАРНОЇ ДОПОМОГИ""",37910005,Первинна,Комунальна,obuhiv_rcpmsd@ukr.net,+380457220633,Тимченко Юрій Олександрович,КИЇВСЬКА,УКРАЇНКА,"Україна, 08720, Київська обл., Обухівський р-н, місто Українка, ВУЛИЦЯ КИЇВСЬКА , будинок 1",50.1381207,30.7373521
14241c16-d697-4f96-9ee7-f16048ef240f,"КОМУНАЛЬНЕ НЕКОМЕРЦІЙНЕ ПІДПРИЄМСТВО ""МІСЬКИЙ ЗАКЛАД З НАДАННЯ ПСИХІАТРИЧНОЇ ДОПОМОГИ "" ВИКОНАВЧОГО ОРГАНУ КИЇВСЬКОЇ МІСЬКОЇ РАДИ (КИЇВСЬКОЇ МІСЬКОЇ ДЕРЖАВНОЇ АДМІНІСТРАЦІЇ)",01993992,Спеціалізована,Комунальна,kmpnl2@ukr.net,"+380936518340, +380445438702",Лоскутова Ірина Володимирівна,М.КИЇВ,КИЇВ,"Україна, 02192, місто Київ, ВУЛИЦЯ МИРОПІЛЬСЬКА, будинок 8",50.4729175,30.6157939
148f5474-e59b-4202-815f-47698e142f40,"КОМУНАЛЬНЕ НЕКОМЕРЦІЙНЕ ПІДПРИЄМСТВО ""КОЧУБЕЇВСЬКИЙ ЦЕНТР ПЕРВИННОЇ МЕДИЧНОЇ ДОПОМОГИ""",40204198,Первинна,Комунальна,kochubeevska_pmd@ukr.net,"+380672853030, +380672853030",Соколова Олена Володимирівна,ХЕРСОНСЬКА,КОЧУБЕЇВКА,"Україна, 74012, Херсонська обл., Бериславський р-н, село Кочубеївка, вул.Менонітська, будинок 120",47.5014457,33.2109557
14a83251-d80a-468e-84d8-2e2dffa24575,"КОМУНАЛЬНЕ НЕКОМЕРЦІЙНЕ ПІДПРИЄМСТВО ""ЧОРНУХИНСЬКИЙ ЦЕНТР ПЕРВИННОЇ МЕДИКО-САНІТАРНОЇ ДОПОМОГИ"" ЧОРНУХИНСЬКОЇ СЕЛИЩНОЇ РАДИ ПОЛТАВСЬКОЇ ОБЛАСТІ",38480006,Первинна,Комунальна,cpmsd.info@chornukhy-crl.pl.ua,"+380534051399, +380534051399",Огарь Віктор Миколайович,ПОЛТАВСЬКА,ЧОРНУХИ,"Україна, 37100, Полтавська обл., Лубенський р-н, селище міського типу Чорнухи, вул.Мележика, будинок 2",50.2685983,32.9351161
14b0f1e4-4098-4a9d-aecb-67ce9415866b,"КОМУНАЛЬНЕ НЕКОМЕРЦІЙНЕ ПІДПРИЄМСТВО ""МІСЬКА ЛІКАРНЯ № 1"" ХАРКІВСЬКОЇ МІСЬКОЇ РАДИ",31733636,Спеціалізована,Комунальна,lpz.osnova@ukr.net,+380577292228,Новіков Сергій Олександрович,ХАРКІВСЬКА,ХАРКІВ,"Україна, 61080, Харківська обл., місто Харків, ВУЛИЦЯ СОХОРА, будинок 5 А",49.929153,36.258136
14b9bad9-4013-4383-a4bf-c0ee638abb14,МАЛАНКА ГАЛИНА ОЛЕКСІЇВНА,ФОП,Первинна,ФОП,forgedeshruslana@gmail.com,+380662723306,Маланка Галина Олексіївна,ЗАКАРПАТСЬКА,БАТЬОВО,"Україна, 90212, Закарпатська обл., Берегівський р-н, селище міського типу Батьово, вул.Кузьменка, будинок 1, квартира 9",48.2028025,22.6498187
14df4fef-a1e5-4e0f-ba6f-8047620fa9ad,"ТОВАРИСТВО З ОБМЕЖЕНОЮ ВІДПОВІДАЛЬНІСТЮ ""МЕДИЧНИЙ ЦЕНТР ""ЛІКАРСЬКА ДИНАСТІЯ""",43762272,Первинна,Приватна (без ФОП),korelska@gmail.com,+380670003103,Клименко Юрій Васильович,М.КИЇВ,КИЇВ,"Україна, 01032, місто Київ, вул.Жилянська, будинок 75",50.4391287,30.4991203
150df75a-d2d5-45f3-8ffb-85a96d517390,"АКЦІОНЕРНЕ ТОВАРИСТВО ""УКРАЇНСЬКА ЗАЛІЗНИЦЯ""",40075815,Спеціалізована,Приватна (без ФОП),cozpom@uz.gov.ua,+380444650689,Гончар Костянтин Володимирович,М.КИЇВ,КИЇВ,"Україна, 03150, місто Київ, ВУЛИЦЯ ЄЖИ ҐЕДРОЙЦЯ, будинок 5",50.4405371,30.4798489
154a35cc-e430-4807-a561-f960b50b17db,"КОМУНАЛЬНЕ НЕКОМЕРЦІЙНЕ ПІДПРИЄМСТВО ""ЦЕНТР ПЕРВИННОЇ МЕДИКО-САНІТАРНОЇ ДОПОМОГИ МАЛОВІЛЬШАНСЬКОЇ СІЛЬСЬКОЇ РАДИ""",37917880,Первинна,Комунальна,bc_medcentr@meta.ua,+380673121253,Ровенко Іван Іванович,КИЇВСЬКА,ОЗЕРНА,"Україна, 09129, Київська обл., Білоцерківський р-н, село Озерна, вул.Паркова, будинок 1а",49.7394802,30.1645051
15680dd1-00c9-460f-831a-775be1078a4c,"КОМУНАЛЬНЕ НЕКОМЕРЦІЙНЕ ПІДПРИЄМСТВО ""ЗАПОРІЗЬКИЙ ЦЕНТР ПЕРВИННОЇ МЕДИКО-САНІТАРНОЇ ДОПОМОГИ № 5""",38969547,Первинна,Комунальна,pklinika@ukr.net,+380612862800,ЗУБАЧОВА ОЛЕНА МИКОЛАЇВНА,ЗАПОРІЗЬКА,ЗАПОРІЖЖЯ,"Україна, 69097, Запорізька обл., місто Запоріжжя, ВУЛИЦЯ ЗАПОРОЗЬКОГО КОЗАЦТВА, будинок 25",47.8603655,35.071558
159337e0-a617-4f25-bca5-59b352d6291b,"КОМУНАЛЬНЕ НЕКОМЕРЦІЙНЕ ПІДПРИЄМСТВО ""НЕМОВИЦЬКИЙ ЦЕНТР ПЕРВИННОЇ МЕДИКО-САНІТАРНОЇ ДОПОМОГИ"" НЕМОВИЦЬКОЇ СІЛЬСЬКОЇ РАДИ САРНЕНСЬКОГО РАЙОНУ РІВНЕНСЬКОЇ ОБЛАСТІ",42011926,Первинна,Комунальна,nemovuchi.cpmsd@gmail.com,+380685147749,Генько Людмила Петрівна,РІВНЕНСЬКА,НЕМОВИЧІ,"Україна, 34540, Рівненська обл., Сарненський р-н, село Немовичі, ВУЛИЦЯ ЦЕНТРАЛЬНА, будинок 11",51.2555723,26.6361176
15b417fb-4ab2-4be5-8f14-35302a7dcddb,ЄРЬОМЕНКО  СНІЖАНА  АНАТОЛІЇВНА ,ФОП,Первинна,ФОП,super.rafail@ukr.net,+380971466009,Єрьоменко Сніжана Анатоліївна,ОДЕСЬКА,ОДЕСА,"Україна, 65123, Одеська обл., місто Одеса, вул.Висоцького, будинок 23-А, квартира 6",46.3793262,30.7163524
15b9c361-e256-4808-bf15-bb5267e24c79,"КОМУНАЛЬНЕ НЕКОМЕРЦІЙНЕ ПІДПРИЄМСТВО ""ЦЕНТР ПЕРВИННОЇ МЕДИКО-САНІТАРНОЇ ДОПОМОГИ"" МОЛОГІВСЬКОЇ СІЛЬСЬКОЇ РАДИ БІЛГОРОД-ДНІСТРОВСЬКОГО РАЙОНУ ОДЕСЬКОЇ ОБЛАСТІ",43934191,Первинна,Комунальна,centrpmsdmologa@gmail.com,+380982851867,Лисак Вікторія Сергіївна,ОДЕСЬКА,ВИПАСНЕ,"Україна, 67752, Одеська обл., Білгород-Дністровський р-н, село Випасне, вул.Кишинівська, будинок 187",46.2039273,30.2627784
15d942bd-acb5-4d50-b10b-9f17965807c7,"КОМУНАЛЬНЕ НЕКОМЕРЦІЙНЕ ПІДПРИЄМСТВО ""ТРУСКАВЕЦЬКА МІСЬКА ЛІКАРНЯ"" ТРУСКАВЕЦЬКОЇ МІСЬКОЇ РАДИ",01984228,Спеціалізована,Комунальна,kptml@ukr.net,+380324754744,Іроденко Василь Миколайович,ЛЬВІВСЬКА,ТРУСКАВЕЦЬ,"Україна, 82200, Львівська обл., місто Трускавець, ВУЛИЦЯ ДАНИЛИШИНИХ, будинок 62",49.2764496,23.5225938
15dd4e11-5d0a-42f6-a029-fd4c4aa55917,"КОМУНАЛЬНЕ НЕКОМЕРЦІЙНЕ ПІДПРИЄМСТВО ""ГЛЕЮВАТСЬКИЙ ЦЕНТР ПЕРВИННОЇ МЕДИКО-САНІТАРНОЇ ДОПОМОГИ"" ГЛЕЮВАТСЬКОЇ СІЛЬСЬКОЇ РАДИ",44589333,Первинна,Комунальна,gleyuvatkacpmsd@ukr.net,+380988378930,Рак Олександр Петрович,ДНІПРОПЕТРОВСЬКА,ГЛЕЮВАТКА,"Україна, 53001, Дніпропетровська обл., Криворізький р-н, село Глеюватка, вул.Кірова Олександра, будинок 1а",48.0467672,33.4216314
15efb38d-3f37-47d3-875d-3f05fd247530,"ТОВАРИСТВО З ОБМЕЖЕНОЮ ВІДПОВІДАЛЬНІСТЮ ""МЕДУЗАС""",43402422,Первинна,Приватна (без ФОП),medcentr.meduzas3@gmail.com,+380955996363,Рамджі Вікторія Олександрівна,ХАРКІВСЬКА,ХАРКІВ,"Україна, 61091, Харківська обл., місто Харків, вул.Харківських Дивізій, будинок 14, корпус 1-А",49.9778623,36.2536187
16318530-b826-4e53-aeb8-2fa22ddcb8e5,БІЛОУС   МАРІЯ  МИКОЛАЇВНА,ФОП,Первинна,ФОП,klinika_simeynogo_likaria@ukr.net,+380638725416,Білоус Марія Миколаївна,М.КИЇВ,КИЇВ,"Україна, 02090, місто Київ, вул.Двінська, будинок 1, корпус а, офіс 2",50.42595,30.601245
1636bf5d-2a8b-4db4-a0a5-7dd684a2429a,"ДЕРЖАВНА НАУКОВА УСТАНОВА ""НАУКОВО-ПРАКТИЧНИЙ ЦЕНТР ПРОФІЛАКТИЧНОЇ ТА КЛІНІЧНОЇ МЕДИЦИНИ"" ДЕРЖАВНОГО УПРАВЛІННЯ СПРАВАМИ",05415786,Спеціалізована,Державна,clinicgovua@gmail.com,+380442848453,Дячук Дмитро Дмитрович,М.КИЇВ,КИЇВ,"Україна, 01014, місто Київ, ВУЛ. ВЕРХНЯ, будинок 5",50.422836,30.5510381
163df394-518e-4d15-a64d-4f20661825c7,"КОМУНАЛЬНЕ НЕКОМЕРЦІЙНЕ ПІДПРИЄМСТВО ""ГОЛОВИНСЬКИЙ ЦЕНТР ПЕРВИННОЇ МЕДИЧНОЇ ДОПОМОГИ"" ГОЛОВИНСЬКОЇ СІЛЬСЬКОЇ РАДИ",44509153,Первинна,Комунальна,zlazne_amb@ukr.net,+380634337005,Павлик Антон Анатолійович,РІВНЕНСЬКА,ЗЛАЗНЕ(З),"Україна, 35040, Рівненська обл., Костопільський р-н, село Злазне(з), вул.Соборна, будинок 8",50.9316302,26.2137489
1654ece2-2351-4b68-b3f8-559ea832e0b7,КАБАН ВОЛОДИМИР БОГДАНОВИЧ,ФОП,Первинна,ФОП,kaban.volodymyr@gmail.com,+380674191055,Кабан Володимир Богданович,ЛЬВІВСЬКА,ЛЬВІВ,"Україна, 79010, Львівська обл., місто Львів, ВУЛИЦЯ СОЛОДОВА, будинок 10",48.9031731,24.6630065
166936f3-c94d-4230-acca-6155a5100571,"КОМУНАЛЬНЕ НЕКОМЕРЦІЙНЕ ПІДПРИЄМСТВО ""ДИТЯЧА КЛІНІЧНА ЛІКАРНЯ СВЯТОЇ ЗІНАЇДИ"" СУМСЬКОЇ МІСЬКОЇ РАДИ",02000334,Спеціалізована,Комунальна,smdkl_bugaenko@ukr.net,+380509055908,Бугаєнко Вікторія Олександрівна,СУМСЬКА,СУМИ,"Україна, 40022, Сумська обл., місто Суми, ВУЛИЦЯ ТРОЇЦЬКА, будинок 28",50.9209489,34.8164628
166a881e-dc7b-4f48-b917-6ccb58b0e0d5,ДОВГОПОЛА ЛАРИСА ЮРІЇВНА,ФОП,Первинна,ФОП,laradovgopola2@gmail.com,+380997852902,Довгопола Лариса Юріївна,ХАРКІВСЬКА,ДВОРІЧНА(З),"Україна, 62702, Харківська обл., Дворічанський р-н, селище міського типу Дворічна(з), вул.Підгірна, будинок 6, квартира 11",49.854154,37.6740168
166f9821-9e95-489c-acbe-946ed29d4750,ДЕМКО ІРИНА ДЕМ'ЯНІВНА,ФОП,Первинна,ФОП,mdfd@i.ua,+380671622220,Демко Ірина Дем'янівна,ЛЬВІВСЬКА,ЛЬВІВ,"Україна, 79008, Львівська обл., місто Львів, ВУЛИЦЯ РУСЬКА, будинок 16, квартира 15",49.841657,24.0340784
169667ad-25f9-43a0-a56f-17d4f8dc62a4,"Комунальне некомерційне підприємство""Амбулаторія загальної практики-сімейної медицини""Червоненської селищної ради",40379396,Первинна,Комунальна,kz_pmsd@ukr.net,+380680167904,Савчук Людмила Петрівна,ЖИТОМИРСЬКА,ЧЕРВОНЕ,"Україна, 13434, Житомирська обл., Бердичівський р-н, селище міського типу Червоне, вул.Заводська, будинок 6",49.9527773,28.8578584
16a7850c-15cf-439a-a694-8ab891e35203,"ТОВАРИСТВО З ОБМЕЖЕНОЮ ВІДПОВІДАЛЬНІСТЮ ""МЕДИЧНИЙ ЦЕНТР ""ВЕРУМ""",37967444,Первинна,Приватна (без ФОП),info@verum.ua,+380663835959,Живко Олександр Олександрович,М.КИЇВ,КИЇВ,"Україна, 03039, місто Київ, ВУЛИЦЯ ДЕМІЇВСЬКА, будинок 13, офіс 3",50.4038045,30.5138064
16b5d928-d1ed-42a5-adbe-d13d6618944b,"ПРИВАТНЕ ПІДПРИЄМСТВО ""Медичний центр ""Радовель""",43884261,Первинна,Приватна (без ФОП),radowell.medcenter@gmail.com,"+380674576861, +380442993131",Шуневич Наталія Олександрівна,ЖИТОМИРСЬКА,РАДОВЕЛЬ,"Україна, 11025, Житомирська обл., Коростенський р-н, село Радовель, вул.Хоречка Миколи, будинок 4",51.1505012,27.8405461
16c5fa24-9dd2-48e3-b28b-2167b94f2984,ІВАНОВ ДМИТРО ВАЛЕНТИНОВИЧ,ФОП,Первинна,ФОП,dimonlux7@gmail.com,+380991966046,Іванов Дмитро Валентинович,СУМСЬКА,СТЕПАНІВКА,"Україна, 42304, Сумська обл., Сумський р-н, селище міського типу Степанівка, ВУЛИЦЯ ПЕРШОТРАВНЕВА, будинок 50",50.8959432,34.8317831
16cb27c5-3c8b-4b81-ae85-f0069fa40cd0,"КОМУНАЛЬНЕ НЕКОМЕРЦІЙНЕ ПІДПРИЄМСТВО ""УЖГОРОДСЬКА МІСЬКА БАГАТОПРОФІЛЬНА КЛІНІЧНА ЛІКАРНЯ"" УЖГОРОДСЬКОЇ МІСЬКОЇ РАДИ",40835473,Первинна,Комунальна,knp.urcl@gmail.com,+380506066307,Голуб Олег Євгенович,ЗАКАРПАТСЬКА,УЖГОРОД,"Україна, 88000, Закарпатська обл., Ужгородський р-н, місто Ужгород, вул.Минайська, будинок 71",48.6208,22.287883
16f966a3-155a-478f-ad1a-3ba18249ffa3,"КОМУНАЛЬНЕ НЕКОМЕРЦІЙНЕ ПІДПРИЄМСТВО ""ВІННИЦЬКА ОБЛАСНА ДИТЯЧА КЛІНІЧНА ЛІКАРНЯ ВІННИЦЬКОЇ ОБЛАСНОЇ РАДИ""",03082760,Первинна,Комунальна,vin_odkl@ukr.net,"+380677236112, +380432552007",Діденко Лідія Олексіївна,ВІННИЦЬКА,ВІННИЦЯ,"Україна, 21029, Вінницька обл., місто Вінниця, ВУЛИЦЯ ХМЕЛЬНИЦЬКЕ ШОСЕ, будинок 108",49.2402618,28.4101931
16f9f5df-3ed6-4f7f-ad86-4f1844968bbe,"КОМУНАЛЬНЕ НЕКОМЕРЦІЙНЕ ПІДПРИЄМСТВО ""МІСЬКА ЛІКАРНЯ №3"" ХАРКІВСЬКОЇ МІСЬКОЇ РАДИ",02003540,Первинна,Комунальна,khml3@ukr.net,+380577255720,Барбашова Вікторія Олександрівна,ХАРКІВСЬКА,ХАРКІВ,"Україна, 61020, Харківська обл., місто Харків, ПРОСПЕКТ НОВО-БАВАРСЬКИЙ, будинок 90",49.9503261,36.157971
171c8b69-c58f-42f6-a47a-d021b343ae74,"ТОВАРИСТВО З ОБМЕЖЕНОЮ ВІДПОВІДАЛЬНІСТЮ ""АЙКЮМЕД""",43288396,Первинна,Приватна (без ФОП),iqmed@iqmed.com.ua,+380661036103,Фільц Юрій Олександрович,ЛЬВІВСЬКА,ЛЬВІВ,"Україна, 79035, Львівська обл., місто Львів, вул.Липова алея, будинок 15",49.8186229,24.0503425
173f1c0d-82a2-4ada-b9f2-c810a1937e80,"КОМУНАЛЬНЕ НЕКОМЕРЦІЙНЕ ПІДПРИЄМСТВО ""БАВОРІВСЬКА АМБУЛАТОРІЯ ЗАГАЛЬНОЇ ПРАКТИКИ - СІМЕЙНОЇ МЕДИЦИНИ"" ВЕЛИКОГАЇВСЬКОЇ СІЛЬСЬКОЇ РАДИ ТЕРНОПІЛЬСЬКОГО РАЙОНУ ТЕРНОПІЛЬСЬКОЇ ОБЛАСТІ",42072308,Первинна,Комунальна,bavorivclinic@gmail.com,+380666361848,Дударенко Віталій Анатолійович,ТЕРНОПІЛЬСЬКА,БАВОРІВ,"Україна, 47743, Тернопільська обл., Тернопільський р-н, село Баворів, ВУЛИЦЯ ЛЕСІ УКРАЇНКИ, будинок 10",49.440437,25.7110239
1742e87c-1e77-42ef-8000-99b890e5cf56,"ТОВАРИСТВО З ОБМЕЖЕНОЮ ВІДПОВІДАЛЬНІСТЮ ""АЛЬТАМЕДІКА ПЛЮС""",36150660,Первинна,Приватна (без ФОП),altamedikasim@gmail.com,+383806884030,Сидорук Олексій Михайлович,ВІННИЦЬКА,ВІННИЦЯ,"Україна, 21000, Вінницька обл., місто Вінниця, ВУЛИЦЯ МАРІЇ ЛИТВИНЕНКО-ВОЛЬГЕМУТ, будинок 40",49.233083,28.4682169
174c4f58-e51a-477b-9db8-e96487dc9f2a,"КОМУНАЛЬНЕ НЕКОМЕРЦІЙНЕ ПІДПРИЄМСТВО ""ЦЕНТР ПЕРВИННОЇ МЕДИКО-САНІТАРНОЇ ДОПОМОГИ №2"" ОБОЛОНСЬКОГО РАЙОНУ М.КИЄВА",23379143,Первинна,Комунальна,cpmsd.obolon2@gmail.com,+380443357529,Некрасова Мар'яна Анатоліївна,М.КИЇВ,КИЇВ,"Україна, 04202, місто Київ, пр.Литовський, будинок 8",50.5243314,30.4525919
1762bc33-4821-44cc-9f54-217c2d14bef2,"КОМУНАЛЬНЕ ПІДПРИЄМСТВО ""СЛАВУТСЬКИЙ ЦЕНТР ПЕРВИННОЇ МЕДИКО-САНІТАРНОЇ ДОПОМОГИ"" СЛАВУТСЬКОЇ МІСЬКОЇ РАДИ",38358026,Первинна,Комунальна,slavuta-pmsd@ukr.net,+380384272700,Гаврилюк Олег Віталійович,ХМЕЛЬНИЦЬКА,СЛАВУТА,"Україна, 30000, Хмельницька обл., Шепетівський р-н, місто Славута, вул.Мудрого Ярослава, будинок 29 ""Г""",50.2915771,26.871083
17a769fb-ce4a-4949-8aa9-5bcb4185736a,"КОМУНАЛЬНЕ НЕКОМЕРЦІЙНЕ ПІДПРИЄМСТВО ""БАТУРИНСЬКИЙ МІСЬКИЙ ЦЕНТР ПЕРВИННОЇ МЕДИКО-САНІТАРНОЇ ДОПОМОГИ"" БАТУРИНСЬКОЇ МІСЬКОЇ РАДИ",42469470,Первинна,Комунальна,baturin-1med@ukr.net,"+380971810107, +380463548331",Какама Ірина Федорівна,ЧЕРНІГІВСЬКА,БАТУРИН,"Україна, 16512, Чернігівська обл., Ніжинський р-н, місто Батурин, вул.Ющенка В. ім., будинок 54",51.3359685,32.8694503
17cdbfc9-3147-424b-b94f-a9d46c134926,"КОМУНАЛЬНЕ НЕКОМЕРЦІЙНЕ ПІДПРИЄМСТВО ""КРАСНОРІЧЕНСЬКА АМБУЛАТОРІЯ ЗАГАЛЬНОЇ ПРАКТИКИ СІМЕЙНОЇ МЕДИЦИНИ"" КРАСНОРІЧЕНСЬКОЇ СЕЛИЩНОЇ РАДИ",43357679,Первинна,Комунальна,kras.amb.opsm@ukr.net,+380645493075,Анголенко Микола Миколайович,ЛУГАНСЬКА,КРАСНОРІЧЕНСЬКЕ,"Україна, 92913, Луганська обл., Сватівський р-н, селище міського типу Красноріченське, вул.Калинова, будинок 1",49.2203683,38.1935271
17e30aab-f3c7-4a9a-a519-b1e405c241bd,СНІЦАР АЛЛА ОЛЕКСАНДРІВНА,ФОП,Первинна,ФОП,a_snitsar@ukr.net,+380953706638,Сніцар Алла Олександрівна,М.КИЇВ,КИЇВ,"Україна, 03062, місто Київ, просп. Перемоги, будинок 67А, офіс 1",0.0,0.0
17fecfa4-afb1-487b-aebb-a2857cef56ab,ІЛЬНІЦЬКА ІРИНА ОЛЕГІВНА,ФОП,Первинна,ФОП,ilnitskaya2018@gmail.com,"+380631695239, +380631695239",Ільніцька Ірина Олегівна,М.КИЇВ,КИЇВ,"Україна, 02211, місто Київ, ПРОСПЕКТ ВАТУТІНА, будинок 6А, квартира 141",50.4954141,30.5797852
18043fbc-f680-46cb-b183-e90951885319,"ТОВАРИСТВО З ОБМЕЖЕНОЮ ВІДПОВІДАЛЬНІСТЮ ""МЕДІКОМ КРИВБАС""",38256191,Первинна,Приватна (без ФОП),info@mkom.com.ua,"+380676326619, +380564049801",Діжур Андрій Петрович,ДНІПРОПЕТРОВСЬКА,КРИВИЙ РІГ,"Україна, 50056, Дніпропетровська обл., місто Кривий Ріг, МІКРОРАЙОН СОНЯЧНИЙ, будинок 59",47.9492474,33.4401264
182a514d-535f-495d-8d0c-8a79b6f3afc2,БРУХЛІЙ ЛЮДМИЛА ПЕТРІВНА,ФОП,Первинна,ФОП,bryhlijl@gmail.com,+380661347283,Брухлій Людмила Петрівна,РІВНЕНСЬКА,КОРЕЦЬ,"Україна, 34700, Рівненська обл., Рівненський р-н, місто Корець, вул.Володимирська, будинок 25А",50.6232491,27.1513101
185332bc-3f40-4e8d-9bea-2e522dc7e2d5,"КОМУНАЛЬНЕ НЕКОМЕРЦІЙНЕ ПІДПРИЄМСТВО ""ДОБРОТВІРСЬКА МІСЬКА ЛІКАРНЯ""",20764231,Спеціалізована,Комунальна,maikira14318@gmail.com,+380325431258,КРУГЛЯНКО ЛЮДМИЛА МИКОЛАЇВНА,ЛЬВІВСЬКА,ДОБРОТВІР,"Україна, 80411, Львівська обл., Червоноградський р-н, селище міського типу Добротвір, вул.Шевченка Т., будинок 10",50.2036713,24.3867252
18626b8c-8a02-40d4-876e-7c0f5890517e,"КОМУНАЛЬНЕ НЕКОМЕРЦІЙНЕ ПІДПРИЄМСТВО БІЛОПІЛЬСЬКОЇ МІСЬКОЇ РАДИ ""БІЛОПІЛЬСЬКА МІСЬКА ЛІКАРНЯ""",02007489,Спеціалізована,Комунальна,knp-belbol@ukr.net,+380544391745,Мартиненко Юрій Іванович,СУМСЬКА,БІЛОПІЛЛЯ,"Україна, 41800, Сумська обл., Сумський р-н, місто Білопілля, вул.Малевича Казимира, будинок 27",51.1464177,34.3237289
18791c31-3281-4e5a-9ea5-2eef9a6fe18e,"КОМУНАЛЬНЕ НЕКОМЕРЦІЙНЕ ПІДПРИЄМСТВО ""ЦЕНТР ПЕРВИННОЇ МЕДИКО-САНІТАРНОЇ ДОПОМОГИ САМБІРСЬКОЇ МІСЬКОЇ РАДИ""",41160010,Первинна,Комунальна,andriibobak@ukr.net,+380678077648,Бобак Андрій Іванович,ЛЬВІВСЬКА,САМБІР,"Україна, 81400, Львівська обл., місто Самбір, ВУЛ.ЧАЙКОВСЬКОГО, будинок 12",49.5191203,23.204143
189f3396-a359-4b51-ae68-0b333914a3ae,БІЛА ГАННА ЄВГЕНІЇВНА,ФОП,Первинна,ФОП,bilaganna.klinika.1@gmail.com,+380674406094,Біла Ганна Євгеніївна,ХЕРСОНСЬКА,ХЕРСОН,"Україна, 73039, Херсонська обл., місто Херсон, пр.Національної Гвардії України, будинок 142, квартира 125",46.9660167,32.0072073
18c4718d-15e1-47fa-84df-823ca6d0cc7e,КОМУНАЛЬНЕ НЕКОМЕРЦІЙНЕ ПІДПРИЄМСТВО КЛІШКОВЕЦЬКИЙ ЦЕНТР ПЕРВИННОЇ МЕДИКО-САНІТАРНОЇ ДОПОМОГИ КЛІШКОВЕЦЬКОЇ СІЛЬСЬКОЇ РАДИ,41732618,Первинна,Комунальна,cpmsd.klish.otg@gmail.com,+380958373322,Фуркал Олександр Васильович,ЧЕРНІВЕЦЬКА,КЛІШКІВЦІ,"Україна, 60014, Чернівецька обл., Дністровський р-н, село Клішківці, вул.Струмінського, будинок 7",48.4243278,26.2548267
18c6154c-c391-470b-8e0f-1ac4e371aeb8,"ПІДПРИЄМСТВО ""ЛІКУВАЛЬНО-ДІАГНОСТИЧНИЙ ЦЕНТР ""КЛІНІКА СВЯТОГО ЛУКИ"" ІВАНО-ФРАНКІВСЬКОГО АРХІЄПАРХІАЛЬНОГО УПРАВЛІННЯ УКРАЇНСЬКОЇ ГРЕКО-КАТОЛИЦЬКОЇ ЦЕРКВИ""",38713045,Первинна,Приватна (без ФОП),ldcsl_if@ukr.net,+380984178831,Іваночко Руслана Іванівна,ІВАНО-ФРАНКІВСЬКА,ІВАНО-ФРАНКІВСЬК,"Україна, 76019, Івано-Франківська обл., Івано-Франківський р-н, місто Івано-Франківськ, вул.імені Владики Софрона Мудрого, будинок 22",48.922633,24.711117
18cce05b-d4ff-406a-9c15-489db8ad70b9,"КОМУНАЛЬНЕ НЕКОМЕРЦІЙНЕ ПІДПРИЄМСТВО ""ЧЕМЕРОВЕЦЬКИЙ ЦЕНТР ПЕРВИННОЇ МЕДИКО-САНІТАРНОЇ ДОПОМОГИ"" ЧЕМЕРОВЕЦЬКОЇ СЕЛИЩНОЇ РАДИ",38195551,Первинна,Комунальна,chempmsd@gmail.com,+380984477276,Пелехацький Віктор Анатолійович,ХМЕЛЬНИЦЬКА,ЧЕМЕРІВЦІ,"Україна, 31601, Хмельницька обл., Кам'янець-Подільський р-н, селище міського типу Чемерівці, вул.Центральна, будинок 61Г",49.0089402,26.3422869
18d0b2f4-b48e-4b67-ba80-a88c8a7a98e2,"КОМУНАЛЬНЕ НЕКОМЕРЦІЙНЕ ПІДПРИЄМСТВО ""ІВАНІВСЬКИЙ МЕДИЧНИЙ ЦЕНТР"" ІВАНІВСЬКОЇ СЕЛИЩНОЇ РАДИ ОДЕСЬКОЇ ОБЛАСТІ",38096553,Первинна,Комунальна,ivanivkacpmsd@gmail.com,+380485431575,Гречана Людмила Олексіївна,ОДЕСЬКА,ІВАНІВКА,"Україна, 67200, Одеська обл., Березівський р-н, селище міського типу Іванівка, вул.Центральна, будинок 121",46.9755236,30.469358
18e43e20-c784-41a7-aecb-3bf7e17062c4,"КОМУНАЛЬНЕ НЕКОМЕРЦІЙНЕ ПІДПРИЄМСТВО ""КОЗЛІВСЬКА РАЙОННА ЛІКАРНЯ"" КОЗЛІВСЬКОЇ СЕЛИЩНОЇ РАДИ",02000783,Первинна,Комунальна,kozliv_l@ukr.net,+380964860617,Кушнір Ярослав Богданович,ТЕРНОПІЛЬСЬКА,КОЗЛІВ,"Україна, 47631, Тернопільська обл., Тернопільський р-н, селище міського типу Козлів, вул.Заводська, будинок 32, корпус 1",49.4254167,25.1759562
18eb438b-470d-40ee-bd0f-4f42672aba76,"ТОВАРИСТВО З ОБМЕЖЕНОЮ ВІДПОВІДАЛЬНІСТЮ ""МЕДІБОР ПЛЮС""",41664758,Первинна,Приватна (без ФОП),office@medibor.com,+380674107747,Буланов Тарас Вікторович,ЖИТОМИРСЬКА,ЖИТОМИР,"Україна, 10001, Житомирська обл., місто Житомир, ВУЛИЦЯ БОРИСА ТЕНА, будинок 143",50.2637662,28.7006929
18f1c63d-b2a6-4c09-8b3d-82fb976cccd0,КУЗЬМИН ЛЮДМИЛА ЛЕОНІДІВНА,ФОП,Первинна,ФОП,kuzmin.lyuda79@gmail.com,+380631829975,Кузьмин Людмила Леонідівна,ЧЕРНІГІВСЬКА,ОСТЕР,"Україна, 17044, Чернігівська обл., Козелецький р-н, місто Остер, ВУЛИЦЯ ГАГАРІНА, будинок 27, квартира 3",50.9277587,30.7529639
19094eb5-d7ff-4df8-a5cb-4c4b9c44214d,"ДЕРЖАВНА УСТАНОВА ""ТЕРИТОРІАЛЬНЕ МЕДИЧНЕ ОБ'ЄДНАННЯ МІНІСТЕРСТВА ВНУТРІШНІХ СПРАВ УКРАЇНИ ПО ВОЛИНСЬКІЙ ОБЛАСТІ""",08734463,Спеціалізована,Державна,du.tmo.mvs.ua.volyn@gmail.com,+380332742305,Савченко Вікторія Миколаївна,ВОЛИНСЬКА,ЛУЦЬК,"Україна, 43001, Волинська обл., місто Луцьк, ВУЛИЦЯ ЧЕРНИШЕВСЬКОГО, будинок 114Б",50.7537471,25.3077855
1922c451-38f3-4007-a70d-85e2b81dd3e2,"КОМУНАЛЬНЕ НЕКОМЕРЦІЙНЕ ПІДПРИЄМСТВО ""ЛІКАРНЯ ІНТЕНСИВНОГО ЛІКУВАННЯ БОЯРСЬКОЇ МІСЬКОЇ РАДИ""",01994669,Спеціалізована,Комунальна,kanboycrl@gmail.com,+380459840059,Пляцек Володимир Анатолійович,КИЇВСЬКА,БОЯРКА,"Україна, 08154, Київська обл., Фастівський р-н, місто Боярка, вул.Соборності, будинок 51",50.3310476,30.280359
19266c14-0d9d-43f9-b3bb-c3e247104cf9,"КОМУНАЛЬНЕ НЕКОМЕРЦІЙНЕ ПІДПРИЄМСТВО ""АМБУЛАТОРІЯ ЗАГАЛЬНОЇ ПРАКТИКИ-СІМЕЙНОЇ МЕДИЦИНИ"" КРОПИВНИЦЬКОЇ МІСЬКОЇ РАДИ""",33797005,Первинна,Комунальна,kzazpsm@krmr.gov.ua,+380522271074,Васецька Світлана Леонідівна,КІРОВОГРАДСЬКА,КРОПИВНИЦЬКИЙ,"Україна, 25019, Кіровоградська обл., місто Кропивницький, СЕЛИЩЕ ГІРНИЧЕ, ВУЛИЦЯ ЛІНІЯ 10-А, будинок 61",48.4742754,32.2822231
192d2eee-7a8f-42f3-97bc-dce83d5a7a7b,"КОМУНАЛЬНЕ НЕКОМЕРЦІЙНЕ ПІДПРИЄМСТВО ""ВІННИЦЬКИЙ ОБЛАСНИЙ КЛІНІЧНИЙ МЕДИЧНИЙ РЕАБІЛІТАЦІЙНИЙ ЦЕНТР ВЕТЕРАНІВ ВІЙНИ ТА РАДІАЦІЙНОГО ЗАХИСТУ НАСЕЛЕННЯ ВІННИЦЬКОЇ ОБЛАСНОЇ РАДИ""",01982270,Спеціалізована,Комунальна,vokmrc@ukr.net,+380432655201,Голодюк Світлана Михайлівна,ВІННИЦЬКА,ВІННИЦЯ,"Україна, 21018, Вінницька обл., Вінницький р-н, місто Вінниця, вул.Стуса В., будинок 11",49.2297784,28.4592967
192d8117-1209-45f4-bdfe-464b59b60de3,"КОМУНАЛЬНЕ НЕКОМЕРЦІЙНЕ ПІДПРИЄМСТВО ""ЦЕНТР ПЕРВИННОЇ МЕДИКО - САНІТАРНОЇ ДОПОМОГИ"" ОРІХІВСЬКОЇ МІСЬКОЇ РАДИ",38608709,Первинна,Комунальна,cpmsd_orihiv@ukr.net,+380614145008,Бондаренко Антоніна Іванівна,ЗАПОРІЗЬКА,ОРІХІВ,"Україна, 70500, Запорізька обл., Пологівський р-н, місто Оріхів, вул.Покровська, будинок 26",47.5658802,35.7876745
1951a6d1-2693-4d8a-adf7-f76d92f9fb3f,"КОМУНАЛЬНЕ НЕКОМЕРЦІЙНЕ ПІДПРИЄМСТВО ""ЦЕНТР ПЕРВИННОЇ МЕДИКО-САНІТАРНОЇ ДОПОМОГИ ЧОРНООСТРІВСЬКОЇ СЕЛИЩНОЇ РАДИ""",40333372,Первинна,Комунальна,kzpmsd2016@ukr.net,+380677361007,Філь Юлія Сергіївна,ХМЕЛЬНИЦЬКА,ВОВЧА ГОРА,"Україна, 31310, Хмельницька обл., Хмельницький р-н, село Вовча Гора, ВУЛИЦЯ НОВА, будинок 1",49.5140706,26.753718
195323b8-1106-416d-a00e-8aa61d17ca7e,"КОМУНАЛЬНЕ НЕКОМЕРЦІЙНЕ ПІДПРИЄМСТВО ""СЛАВУТИЦЬКА МІСЬКА ЛІКАРНЯ"" СЛАВУТИЦЬКОЇ МІСЬКОЇ РАДИ ВИШГОРОДСЬКОГО РАЙОНУ КИЇВСЬКОЇ ОБЛАСТІ",41736008,Первинна,Комунальна,knp_slavutych_ml@ukr.net,+380457922724,Ловигін Георгій Олександрович,КИЇВСЬКА,СЛАВУТИЧ,"Україна, 07101, Київська обл., Вишгородський р-н, місто Славутич, вул.Збройних Сил України, будинок 7",51.5237484,30.7513441
196105b2-1b91-42d8-8b2f-349803eab6c6,"ДЕРЖАВНА УСТАНОВА ""ТЕРИТОРІАЛЬНЕ МЕДИЧНЕ ОБ'ЄДНАННЯ МІНІСТЕРСТВА ВНУТРІШНІХ СПРАВ УКРАЇНИ ПО ВІННИЦЬКІЙ ОБЛАСТІ""",08734457,Спеціалізована,Державна,smzvinn@ukr.net,+380689705699,Приходько Сергій Миколайович,ВІННИЦЬКА,ВІННИЦЯ,"Україна, 21010, Вінницька обл., місто Вінниця, 1-Й ПРОВУЛОК БОТАНІЧНИЙ, будинок 38",49.254438,28.4501494
1967a95a-2194-4920-acc0-0d2b0dd0a3e7,ЧУМЕЛЬ ЛАРИСА МИКОЛАЇВНА,ФОП,Первинна,ФОП,larisachumel@gmail.com,+380972760861,Чумель Лариса Миколаївна,ЖИТОМИРСЬКА,БЕРДИЧІВ,"Україна, 13300, Житомирська обл., місто Бердичів, ВУЛИЦЯ ЖИТОМИРСЬКА, будинок 43, квартира 150",49.891021,28.6039668
198a29db-6a8a-42f3-8b40-0b439fd7ec9e,ФЕДОРИН ІРИНА ЯРОСЛАВІВНА,ФОП,Первинна,ФОП,klinika.simeina@gmail.com,+380504332973,Федорин Ірина Ярославівна,ІВАНО-ФРАНКІВСЬКА,ІВАНО-ФРАНКІВСЬК,"Україна, 76492, Івано-Франківська обл., місто Івано-Франківськ, село Угорники, ВУЛИЦЯ СЕЧЕНОВА, будинок 129А, корпус 38, квартира 24",48.9122873,24.7199172
198ab521-0c04-40c8-a5f9-15f96f2d1bd4,"КОМУНАЛЬНЕ НЕКОМЕРЦІЙНЕ ПІДПРИЄМСТВО ""ЦЕНТР ПЕРВИННОЇ МЕДИКО-САНІТАРНОЇ ДОПОМОГИ № 1""ГОЛОСІЇВСЬКОГО РАЙОНУ М. КИЄВА",38945065,Первинна,Комунальна,pmsd1@ukr.net,+380442500276,Дубинченко Анна Юріївна,М.КИЇВ,КИЇВ,"Україна, 03191, місто Київ, вул.Героїв Маріуполя, будинок 6",50.3816186,30.4548513
198d05c4-b468-42c8-97ec-fda472953451,"КОМУНАЛЬНЕ НЕКОМЕРЦІЙНЕ ПІДПРИЄМСТВО ""ЯСЬКІВСЬКИЙ ЦЕНТР ПЕРВИННОЇ МЕДИКО-САНІТАРНОЇ ДОПОМОГИ"" ЯСЬКІВСЬКОЇ СІЛЬСЬКОЇ РАДИ ОДЕСЬКОГО РАЙОНУ ОДЕСЬКОЇ ОБЛАСТІ",43022841,Первинна,Комунальна,knptspmsdyaski67641@ukr.net,+380960932774,Курко Денис Володимирович,ОДЕСЬКА,ТРОЇЦЬКЕ,"Україна, 67641, Одеська обл., Одеський р-н, село Троїцьке, вул.Сатова, будинок 8-Б",46.5413577,30.0213026
1999c8bf-963a-4d61-8642-00728489f03f,"КОМУНАЛЬНЕ НЕКОМЕРЦІЙНЕ ПІДПРИЄМСТВО ""ЖМЕРИНСЬКИЙ МЕДИЧНИЙ ЦЕНТР ПЕРВИННОЇ МЕДИКО-САНІТАРНОЇ ДОПОМОГИ"" ЖМЕРИНСЬКОЇ МІСЬКОЇ РАДИ",37261811,Первинна,Комунальна,vin_zhmerinka_cpmsd@ukr.net,"+380632604265, +380632604265",Султанов Олександр Наілович,ВІННИЦЬКА,ЖМЕРИНКА,"Україна, 23100, Вінницька обл., місто Жмеринка, ВУЛИЦЯ ДОБРОЛЮБОВА, будинок 2",49.0243654,28.1183213
19ca44ae-5309-407e-801e-9cba06aac1bf,"КОМУНАЛЬНЕ НЕКОМЕРЦІЙНЕ ПІДПРИЄМСТВО ""АНДРІЇВСЬКЕ ТЕРИТОРІАЛЬНЕ МЕДИЧНЕ ОБ'ЄДНАННЯ"" АНДРІЇВСЬКОЇ СЕЛИЩНОЇ РАДИ БЕРДЯНСЬКОГО РАЙОНУ ЗАПОРІЗЬКОЇ ОБЛАСТІ",44497955,Первинна,Комунальна,tmoasr@ukr.net,+380982117364,Накостенко Олена Іванівна,ЗАПОРІЗЬКА,АНДРІЇВКА,"Україна, 71140, Запорізька обл., Бердянський р-н, селище міського типу Андріївка, вул.Праці, будинок 43",47.0962593,36.583026
19e4a0cb-0f34-41a9-b202-54e271aef758,ГОПКА АЛЛА МИКОЛАЇВНА,ФОП,Первинна,ФОП,allusa1982@ukr.net,+380986033285,Гопка Алла Миколаївна,РІВНЕНСЬКА,ВЕСНЯНЕ,"Україна, 34713, Рівненська обл., Рівненський р-н, село Весняне, вул.Корецька, будинок 96",50.6121953,26.2833327
19ecca01-5df5-4e52-a2b4-e23be215bc44,"КОМУНАЛЬНЕ НЕКОМЕРЦІЙНЕ ПІДПРИЄМСТВО ""НОВОУСПЕНІВСЬКА АМБУЛАТОРІЯ ЗАГАЛЬНОЇ ПРАКТИКИ-СІМЕЙНОЇ МЕДИЦИНИ"" НОВОУСПЕНІВСЬКОЇ СІЛЬСЬКОЇ РАДИ МЕЛІТОПОЛЬСЬКОГО РАЙОНУ ЗАПОРІЗЬКОЇ ОБЛАСТІ",42257058,Первинна,Комунальна,veselemed@i.ua,+380976328690,Мирошниченко Юлія Геннадіївна,ЗАПОРІЗЬКА,НОВОУСПЕНІВКА,"Україна, 72220, Запорізька обл., Мелітопольський р-н, село Новоуспенівка, вул.Степова, будинок 13",47.0489624,35.0352751
19efeeb4-c5eb-43f4-8796-78b12e7796e7,"КОМУНАЛЬНЕ НЕКОМЕРЦІЙНЕ ПІДПРИЄМСТВО ХАРКІВСЬКОЇ ОБЛАСНОЇ РАДИ ""ОБЛАСНА ДИТЯЧА КЛІНІЧНА ЛІКАРНЯ""",02003600,Спеціалізована,Комунальна,khodkb@ukr.net,+380577258282,Муратов Георгій Рафикович,ХАРКІВСЬКА,ХАРКІВ,"Україна, 61093, Харківська обл., місто Харків, ВУЛИЦЯ ОЗЕРЯНСЬКА, будинок 5",49.9875253,36.1928249
19fc90ae-6f73-466d-b641-f01f986135f9,"КОМУНАЛЬНЕ НЕКОМЕРЦІЙНЕ ПІДПРИЄМСТВО БЕЗЛЮДІВСЬКОЇ СЕЛИЩНОЇ РАДИ ""ЦЕНТР ПЕРВИННОЇ МЕДИЧНОЇ ДОПОМОГИ №3 ХАРКІВСЬКОГО РАЙОНУ""",38008933,Первинна,Комунальна,kdoc67@ukr.net,+380577440162,Шматько Юрій Іванович,ХАРКІВСЬКА,ВАСИЩЕВЕ,"Україна, 62495, Харківська обл., Харківський р-н, селище міського типу Васищеве, ВУЛИЦЯ ЗЕЛЕНА, будинок 36",49.8338541,36.3240107
1a36cb8a-3ccb-4943-970d-073f12e56b17,"КОМУНАЛЬНЕ НЕКОМЕРЦІЙНЕ ПІДПРИЄМСТВО ""МІСЬКА ДИТЯЧА ПОЛІКЛІНІКА № 15"" ХАРКІВСЬКОЇ МІСЬКОЇ РАДИ",25463416,Первинна,Комунальна,mirgorod.natalia.gv15@ukr.net,+380577255273,Миргород Наталія Володимирівна,ХАРКІВСЬКА,ХАРКІВ,"Україна, 61082, Харківська обл., місто Харків, ВУЛИЦЯ РИБАЛКА, будинок 11/1",49.9590368,36.3388859
1a62be9a-f04b-4493-b4c0-e22ac41d54d1,БОРТНІК ГАЛИНА МИКОЛАЇВНА,ФОП,Первинна,ФОП,askep_bortnik@ukr.net,+380673620246,Бортнік Галина Миколаївна,РІВНЕНСЬКА,ВАРАШ,"Україна, 34403, Рівненська обл., місто Вараш, МІКРОРАЙОН ПІВНІЧНИЙ ВУЛИЦЯ ПОЛІСЬКА, будинок 8",51.3537678,25.8637136
1a6652bb-ea44-4324-9218-47ec16680c39,"ТОВАРИСТВО З ОБМЕЖЕНОЮ ВІДПОВІДАЛЬНІСТЮ ""ПРОЛІСОК +""",38862686,Первинна,Приватна (без ФОП),prolisok-plus@ukr.net,+380933739195,Черниш Леся Дмитрівна,ЖИТОМИРСЬКА,МАЛИН(ПН),"Україна, 11602, Житомирська обл., місто Малин(пн), ВУЛИЦЯ ГАГАРІНА, будинок 27",50.7575329,29.240805
1a759558-d527-405c-a3aa-54593af0d763,"КОМУНАЛЬНЕ НЕКОМЕРЦІЙНЕ ПІДПРИЄМСТВО ""ВЕСЕЛІВСЬКИЙ ЦЕНТР ПЕРВИННОЇ МЕДИКО-САНІТАРНОЇ ДОПОМОГИ"" ВЕСЕЛІВСЬКОЇ СЕЛИЩНОЇ РАДИ",40214913,Первинна,Комунальна,med_cpmcd@ukr.net,+380613621644,Воробйова Ірина Львівна,ЗАПОРІЗЬКА,ВЕСЕЛЕ,"Україна, 72202, Запорізька обл., Мелітопольський р-н, селище міського типу Веселе, вул.Горького, будинок 2А/3",47.0184872,34.9087762
1a899e59-95b9-4098-911f-09800d839821,"КОМУНАЛЬНЕ НЕКОМЕРЦІЙНЕ ПІДПРИЄМСТВО ""СУДОВОВИШНЯНСЬКА МІСЬКА ЛІКАРНЯ "" СУДОВОВИШНЯНСЬКОЇ МІСЬКОЇ РАДИ ЛЬВІВСЬКОЇ ОБЛАСТІ",41151514,Первинна,Комунальна,svknp@ukr.net,+380671724524,Врубель Роман Йосифович,ЛЬВІВСЬКА,СУДОВА ВИШНЯ,"Україна, 81340, Львівська обл., Яворівський р-н, місто Судова Вишня, вул.Сагайдачного, будинок 5",49.7883714,23.369379
1a8bd5af-1d3d-4d33-9a4c-bf35c77148a6,"КОМУНАЛЬНЕ НЕКОМЕРЦІЙНЕ ПІДПРИЄМСТВО ""ЧЕРНІГІВСЬКА МІСЬКА ЛІКАРНЯ № 2"" ЧЕРНІГІВСЬКОЇ МІСЬКОЇ РАДИ",14233274,Спеціалізована,Комунальна,chgb2_kv@ukr.net,+380462909010,Якунін Валерій Михайлович,ЧЕРНІГІВСЬКА,ЧЕРНІГІВ,"Україна, 14034, Чернігівська обл., місто Чернігів, пр.Грушевського Михайла, будинок 168б",51.5172217,31.3095756
1a979dce-29e3-4160-909e-dc8cc9e233c1,"ТОВАРИСТВО З ОБМЕЖЕНОЮ ВІДПОВІДАЛЬНІСТЮ ""МЕДІКАВЕР УКРАЇНА""",37639909,Спеціалізована,Приватна (без ФОП),reception@medicover.ua,+380800305911,Яринич Уляна Ігорівна,ЛЬВІВСЬКА,ЛЬВІВ,"Україна, 79057, Львівська обл., місто Львів, вул.Антоновича В., будинок 102",49.8281308,23.9947189
1aebf832-428d-4bf2-892f-deba4f4c5ff7,"ТОВАРИСТВО З ОБМЕЖЕНОЮ ВІДПОВІДАЛЬНІСТЮ ""МІКРОТЕСТЛАБ""",39500101,Первинна,Приватна (без ФОП),microtestmed@gmail.com,+380506072620,Маснєв Костянтин Дмитрович,РІВНЕНСЬКА,РІВНЕ,"Україна, 33019, Рівненська обл., Рівненський р-н, місто Рівне, вул.Стельмаха Володимира, будинок 18-М",48.9498022,38.483026
1b067a1a-1e95-44c3-afe4-d2186eef910d,"Комунальне некомерційне підприємство ""Герцаївський центр первинної медико-санітарної допомоги"" Герцаївської міської ради",38701773,Первинна,Комунальна,cpmsd-grc@med.cv.ua,+380374021061,Козик Анжела Валентинівна,ЧЕРНІВЕЦЬКА,ГЕРЦА,"Україна, 60501, Чернівецька обл., Чернівецький р-н, місто Герца, вул.Центральна, будинок 25",48.1528158,26.2552239
